[
  {
    "id": 1,
    "name": "Saurida degalinė",
    "city": "Vilnius",
    "address": "Buivydiškių g.1a",
    "updated": "25.1907",
    "comment": "2025-01-03 16:30:00.565",
    "latitude": "14160",
    "longitude": 54.7243,
    "postalCode": " Zujūnai",
    "countryCode": "LT"
  },
  {
    "id": 2,
    "name": "IKI Ąžuolas",
    "city": "Vilnius",
    "address": "Architektų g. 214",
    "updated": "2025-01-03 16:30:00.575",
    "comment": "Paštomatas prie šoninės sienos",
    "latitude": "54.679",
    "longitude": 25.2173,
    "postalCode": "04215",
    "countryCode": "LT"
  },
  {
    "id": 3,
    "name": "Amatų skveras",
    "city": "Vilnius",
    "address": "Švitrigailos g.13",
    "updated": "2025-01-03 16:30:00.578",
    "comment": "Paštomatas matomas iš Amatų gatvės",
    "latitude": "54.6737",
    "longitude": 25.2688,
    "postalCode": "03209",
    "countryCode": "LT"
  },
  {
    "id": 4,
    "name": "Maxima",
    "city": "Maišiagala",
    "address": "Mokyklos g.3",
    "updated": "2025-01-03 16:30:00.582",
    "comment": "Paštomatas yra prie šoninės parduotuvės sienos. Šalia taromato.",
    "latitude": "54.8705",
    "longitude": 25.065,
    "postalCode": "14242",
    "countryCode": "LT"
  },
  {
    "id": 5,
    "name": "Čia Market",
    "city": "Vilnius",
    "address": "S.Krasausko g. 1",
    "updated": "2025-01-03 16:30:00.586",
    "comment": "Paštomatas matomas iš Lentvario gatvės.",
    "latitude": "54.644724149",
    "longitude": 25.090887073,
    "postalCode": "25128",
    "countryCode": "LT"
  },
  {
    "id": 6,
    "name": "PC Kalnėnai",
    "city": "Vilnius",
    "address": "Estų g. 1",
    "updated": "2025-01-03 16:30:00.59",
    "comment": "",
    "latitude": "54.652426",
    "longitude": 25.343151,
    "postalCode": "11330",
    "countryCode": "LT"
  },
  {
    "id": 101,
    "name": "Akropolis",
    "city": "Vilnius",
    "address": "Ozo g. 25",
    "updated": "2025-01-03 16:30:00.593",
    "comment": "Paštomatas yra lauke",
    "latitude": "54.70988",
    "longitude": 25.263523,
    "postalCode": "07150",
    "countryCode": "LT"
  },
  {
    "id": 102,
    "name": "Maxima XXX",
    "city": "Vilnius",
    "address": "Ukmergės g. 282",
    "updated": "2025-01-03 16:30:00.597",
    "comment": "Paštomatas yra lauke",
    "latitude": "54.727675",
    "longitude": 25.238565,
    "postalCode": "06115",
    "countryCode": "LT"
  },
  {
    "id": 103,
    "name": "Norfa",
    "city": "Vilnius",
    "address": "Minsko pl. 3",
    "updated": "2025-01-03 16:30:00.601",
    "comment": "Paštomatas yra lauke",
    "latitude": "54.65219",
    "longitude": 25.30526,
    "postalCode": "02121",
    "countryCode": "LT"
  },
  {
    "id": 104,
    "name": "Banginis",
    "city": "Vilnius",
    "address": "P. Lukšio g. 34",
    "updated": "2025-01-03 16:30:00.605",
    "comment": "Paštomatas yra lauke",
    "latitude": "54.709834",
    "longitude": 25.301959,
    "postalCode": "08235",
    "countryCode": "LT"
  },
  {
    "id": 105,
    "name": "Grūstė",
    "city": "Vilnius",
    "address": "Žirmūnų g. 84",
    "updated": "2025-01-03 16:30:00.609",
    "comment": "Paštomatas yra lauke prie prekybos centro šoninės sienos.",
    "latitude": "54.72496",
    "longitude": 25.30314,
    "postalCode": "09118",
    "countryCode": "LT"
  },
  {
    "id": 106,
    "name": "PC Pašilaičiai",
    "city": "Vilnius",
    "address": "Pavilnionių g. 55",
    "updated": "2025-01-03 16:30:00.613",
    "comment": "Paštomatas stovi prekybos centro mašinų stovėjimo aikštelėje.",
    "latitude": "54.73623",
    "longitude": 25.21037,
    "postalCode": "12144",
    "countryCode": "LT"
  },
  {
    "id": 107,
    "name": "Maxima XX",
    "city": "Vilnius",
    "address": "J. Tiškevičiaus g. 22",
    "updated": "2025-01-03 16:30:00.625",
    "comment": "Paštomatas yra lauke",
    "latitude": "54.623909",
    "longitude": 25.109619,
    "postalCode": "02231",
    "countryCode": "LT"
  },
  {
    "id": 108,
    "name": "Panorama",
    "city": "Vilnius",
    "address": "Saltoniškių g. 9",
    "updated": "2025-01-03 16:30:00.638",
    "comment": "Paštomatas stovi -2 prekybos centro aukšte",
    "latitude": "54.699238",
    "longitude": 25.258322,
    "postalCode": "08105",
    "countryCode": "LT"
  },
  {
    "id": 111,
    "name": "IKI Vilnius",
    "city": "Vilnius",
    "address": "Žirmūnų g. 2",
    "updated": "2025-01-03 16:30:00.643",
    "comment": "Paštomatas yra lauke",
    "latitude": "54.697373",
    "longitude": 25.299295,
    "postalCode": "09214",
    "countryCode": "LT"
  },
  {
    "id": 112,
    "name": "Verslo trikampis",
    "city": "Vilnius",
    "address": "J. Jasinskio g. 16",
    "updated": "2025-01-03 16:30:00.647",
    "comment": "Paštomatas stovi lauke",
    "latitude": "54.686609",
    "longitude": 25.259489,
    "postalCode": "03163",
    "countryCode": "LT"
  },
  {
    "id": 114,
    "name": "Maxima XX",
    "city": "Vilnius",
    "address": "Pilaitės pr. 31",
    "updated": "2025-01-03 16:30:00.65",
    "comment": "Paštomatas yra lauke",
    "latitude": "54.709463",
    "longitude": 25.18811,
    "postalCode": "06269",
    "countryCode": "LT"
  },
  {
    "id": 115,
    "name": "BIG",
    "city": "Vilnius",
    "address": "Ukmergės g. 369",
    "updated": "2025-01-03 16:30:00.654",
    "comment": "Paštomatas yra lauke",
    "latitude": "54.740122",
    "longitude": 25.228669,
    "postalCode": "06327",
    "countryCode": "LT"
  },
  {
    "id": 116,
    "name": "IKI Mindaugo",
    "city": "Vilnius",
    "address": "Mindaugo g. 25",
    "updated": "2025-01-03 16:30:00.657",
    "comment": "Paštomatas yra lauke",
    "latitude": "54.672706",
    "longitude": 25.274041,
    "postalCode": "03214",
    "countryCode": "LT"
  },
  {
    "id": 117,
    "name": "Lidl",
    "city": "Vilnius",
    "address": "Rinktinės g. 60",
    "updated": "2025-01-03 16:30:00.66",
    "comment": "Paštomatas yra lauke",
    "latitude": "54.703042",
    "longitude": 25.285844,
    "postalCode": "09318",
    "countryCode": "LT"
  },
  {
    "id": 119,
    "name": "Maxima XX",
    "city": "Vilnius",
    "address": "Naugarduko g. 84",
    "updated": "2025-01-03 16:30:00.663",
    "comment": "Paštomatas yra lauke",
    "latitude": "54.669262",
    "longitude": 25.259367,
    "postalCode": "03160",
    "countryCode": "LT"
  },
  {
    "id": 120,
    "name": "Lidl",
    "city": "Vilnius",
    "address": "Juodasis kelias 34",
    "updated": "2025-01-03 16:30:00.667",
    "comment": "Paštomatas yra lauke",
    "latitude": "54.662915",
    "longitude": 25.343329,
    "postalCode": "11307",
    "countryCode": "LT"
  },
  {
    "id": 121,
    "name": "IKI Fabijoniškės",
    "city": "Vilnius",
    "address": "Fabijoniškių g. 2A",
    "updated": "2025-01-03 16:30:00.67",
    "comment": "Paštomatas yra lauke",
    "latitude": "54.722158",
    "longitude": 25.244963,
    "postalCode": "07109",
    "countryCode": "LT"
  },
  {
    "id": 122,
    "name": "Maxima XX",
    "city": "Vilnius",
    "address": "Žalgirio g. 105",
    "updated": "2025-01-03 16:30:00.673",
    "comment": "Paštomatas yra lauke",
    "latitude": "54.704288",
    "longitude": 25.282638,
    "postalCode": "08211",
    "countryCode": "LT"
  },
  {
    "id": 123,
    "name": "Rimi Erfurtas",
    "city": "Vilnius",
    "address": "Architektų g. 19",
    "updated": "2025-01-03 16:30:00.676",
    "comment": "Paštomatas yra lauke",
    "latitude": "54.673866",
    "longitude": 25.213598,
    "postalCode": "04112",
    "countryCode": "LT"
  },
  {
    "id": 124,
    "name": "Technopolis",
    "city": "Vilnius",
    "address": "V. Gerulaičio g. 10",
    "updated": "2025-01-03 16:30:00.679",
    "comment": "Paštomatas yra lauke prie pastato sienos",
    "latitude": "54.716192",
    "longitude": 25.277489,
    "postalCode": "08200",
    "countryCode": "LT"
  },
  {
    "id": 125,
    "name": "IKI Visoriai",
    "city": "Vilnius",
    "address": "Bajorų kelias 4",
    "updated": "2025-01-03 16:30:00.683",
    "comment": "Paštomatas yra lauke",
    "latitude": "54.754545",
    "longitude": 25.261971,
    "postalCode": "08412",
    "countryCode": "LT"
  },
  {
    "id": 126,
    "name": "IKI Antakalnis",
    "city": "Vilnius",
    "address": "Nemenčinės pl. 2",
    "updated": "2025-01-03 16:30:00.686",
    "comment": "Paštomatas yra lauke",
    "latitude": "54.723811",
    "longitude": 25.319017,
    "postalCode": "10109",
    "countryCode": "LT"
  },
  {
    "id": 127,
    "name": "IKI Papartis",
    "city": "Vilnius",
    "address": "Architektų g. 43",
    "updated": "2025-01-03 16:30:00.689",
    "comment": "Paštomatas yra lauke",
    "latitude": "54.674507",
    "longitude": 25.201412,
    "postalCode": "04221",
    "countryCode": "LT"
  },
  {
    "id": 128,
    "name": "PC UNA",
    "city": "Vilnius",
    "address": "Dangeručio g.1",
    "updated": "2025-01-03 16:30:00.692",
    "comment": "Paštomatas yra lauke prie įėjimo.",
    "latitude": "54.77916",
    "longitude": 25.27552,
    "postalCode": "14332",
    "countryCode": "LT"
  },
  {
    "id": 129,
    "name": "LIDL",
    "city": "Vilnius",
    "address": "Ateities g. 4A",
    "updated": "2025-01-03 16:30:00.695",
    "comment": "Paštomatas yra lauke. Matomas iš prekybos centro automobilių stovėjimo aikštelės.",
    "latitude": "54.738421",
    "longitude": 25.273101,
    "postalCode": "08345",
    "countryCode": "LT"
  },
  {
    "id": 130,
    "name": "Maxima XX",
    "city": "Vilnius",
    "address": "Pergalės g. 42",
    "updated": "2025-01-03 16:30:00.698",
    "comment": "Paštomatas yra lauke",
    "latitude": "54.681623",
    "longitude": 25.413954,
    "postalCode": "11202",
    "countryCode": "LT"
  },
  {
    "id": 131,
    "name": "LIDL",
    "city": "Vilnius",
    "address": "Justiniškių g. 126",
    "updated": "2025-01-03 16:30:00.702",
    "comment": "Paštomatas yra lauke",
    "latitude": "54.729011",
    "longitude": 25.216651,
    "postalCode": "05268",
    "countryCode": "LT"
  },
  {
    "id": 132,
    "name": "Rimi Užupis",
    "city": "Vilnius",
    "address": "Zarasų g. 5A",
    "updated": "2025-01-03 16:30:00.706",
    "comment": "Paštomatas yra lauke",
    "latitude": "54.680985",
    "longitude": 25.312025,
    "postalCode": "01205",
    "countryCode": "LT"
  },
  {
    "id": 133,
    "name": "Rimi Kareivių",
    "city": "Vilnius",
    "address": "Kareivių g. 11A",
    "updated": "2025-01-03 16:30:00.71",
    "comment": "Paštomatas yra lauke",
    "latitude": "54.718099",
    "longitude": 25.300493,
    "postalCode": "09109",
    "countryCode": "LT"
  },
  {
    "id": 134,
    "name": "IKI Žalieji Ežerai",
    "city": "Vilnius",
    "address": "Visalaukio g. 1",
    "updated": "2025-01-03 16:30:00.712",
    "comment": "Paštomatas yra lauke",
    "latitude": "54.778781",
    "longitude": 25.341272,
    "postalCode": "08428",
    "countryCode": "LT"
  },
  {
    "id": 135,
    "name": " Maxima XX",
    "city": "Vilnius",
    "address": "Laisvės pr. 26",
    "updated": "2025-01-03 16:30:00.716",
    "comment": "Paštomatas yra lauke",
    "latitude": "54.690141",
    "longitude": 25.211428,
    "postalCode": "04315",
    "countryCode": "LT"
  },
  {
    "id": 136,
    "name": "CUP",
    "city": "Vilnius",
    "address": "Upės g. 9",
    "updated": "2025-01-03 16:30:00.719",
    "comment": "Paštomatas yra 3-iame aukšte",
    "latitude": "54.693839",
    "longitude": 25.276815,
    "postalCode": "09308",
    "countryCode": "LT"
  },
  {
    "id": 137,
    "name": "Maxima X",
    "city": "Vilnius",
    "address": "Antakalnio g. 75A",
    "updated": "2025-01-03 16:30:00.722",
    "comment": "Paštomatas yra lauke",
    "latitude": "54.71533",
    "longitude": 25.316574,
    "postalCode": "10213",
    "countryCode": "LT"
  },
  {
    "id": 138,
    "name": "Maxima XXX (antras aukštas)",
    "city": "Vilnius",
    "address": "Mindaugo g. 11",
    "updated": "2025-01-03 16:30:00.725",
    "comment": "Paštomatas yra antrame aukšte",
    "latitude": "54.677542",
    "longitude": 25.27191,
    "postalCode": "03225",
    "countryCode": "LT"
  },
  {
    "id": 139,
    "name": "Lidl",
    "city": "Vilnius",
    "address": "Liepkalnio g.102 A",
    "updated": "25.304637",
    "comment": "2025-01-03 16:30:00.728",
    "latitude": "2121",
    "longitude": 54.654848,
    "postalCode": " Vilnius",
    "countryCode": "LT"
  },
  {
    "id": 140,
    "name": "Norfa",
    "city": "Vilnius",
    "address": "Genių g. 10A",
    "updated": "2025-01-03 16:30:00.733",
    "comment": "Paštomatas yra lauke",
    "latitude": "54.688201",
    "longitude": 25.421666,
    "postalCode": "11219",
    "countryCode": "LT"
  },
  {
    "id": 141,
    "name": "Mada",
    "city": "Vilnius",
    "address": "Viršuliškių g. 40 ",
    "updated": "2025-01-03 16:30:00.736",
    "comment": "Paštomatas yra šalimais įvažiavimo į parkingą",
    "latitude": "54.70853",
    "longitude": 25.22724,
    "postalCode": "05110",
    "countryCode": "LT"
  },
  {
    "id": 142,
    "name": "Maxima",
    "city": "Vilnius",
    "address": "Gilužio g. 5",
    "updated": "2025-01-03 16:30:00.739",
    "comment": "Paštomatas yra lauke",
    "latitude": "54.70137",
    "longitude": 25.17876,
    "postalCode": "06236",
    "countryCode": "LT"
  },
  {
    "id": 143,
    "name": "Mandarinas",
    "city": "Vilnius",
    "address": "Ateities g. 91",
    "updated": "2025-01-03 16:30:00.743",
    "comment": "Paštomatas yra lauke",
    "latitude": "54.731942",
    "longitude": 25.246722,
    "postalCode": "06324",
    "countryCode": "LT"
  },
  {
    "id": 144,
    "name": "IKI Pašilaičiai",
    "city": "Vilnius",
    "address": "Gabijos g. 34",
    "updated": "2025-01-03 16:30:00.746",
    "comment": "Paštomatas yra lauke",
    "latitude": "54.735816",
    "longitude": 25.224065,
    "postalCode": "06158",
    "countryCode": "LT"
  },
  {
    "id": 145,
    "name": "Helios City",
    "city": "Vilnius",
    "address": "Savanorių pr. 1",
    "updated": "2025-01-03 16:30:00.749",
    "comment": "Paštomatas yra lauke",
    "latitude": "54.679563",
    "longitude": 25.25857,
    "postalCode": "03116",
    "countryCode": "LT"
  },
  {
    "id": 146,
    "name": "IKI Baltupiai",
    "city": "Vilnius",
    "address": "Didlaukio g. 80A",
    "updated": "2025-01-03 16:30:00.753",
    "comment": "Paštomatas yra lauke",
    "latitude": "54.728696",
    "longitude": 25.269773,
    "postalCode": "08326",
    "countryCode": "LT"
  },
  {
    "id": 147,
    "name": "Rimi Mylia",
    "city": "Vilnius",
    "address": "Kedrų g. 4",
    "updated": "2025-01-03 16:30:00.756",
    "comment": "Paštomatas yra lauke",
    "latitude": "54.67565",
    "longitude": 25.25694,
    "postalCode": "03116",
    "countryCode": "LT"
  },
  {
    "id": 148,
    "name": "Maxima X",
    "city": "Vilnius",
    "address": "Savanorių pr. 31",
    "updated": "2025-01-03 16:30:00.758",
    "comment": "Paštomatas yra lauke",
    "latitude": "54.674055",
    "longitude": 25.248067,
    "postalCode": "03128",
    "countryCode": "LT"
  },
  {
    "id": 149,
    "name": "Jeruzalės siuntų centras",
    "city": "Vilnius",
    "address": "Jeruzalės g. 14",
    "updated": "2025-01-03 16:30:00.769",
    "comment": "Paštomatas yra lauke",
    "latitude": "54.74293",
    "longitude": 25.276518,
    "postalCode": "08415",
    "countryCode": "LT"
  },
  {
    "id": 150,
    "name": "Express Market",
    "city": "Vilnius",
    "address": "Polocko g.42a",
    "updated": "2025-01-03 16:30:00.78",
    "comment": "Paštomatas prie šoninės parduotuvės sienos",
    "latitude": "54.6824",
    "longitude": 25.3092,
    "postalCode": "01205",
    "countryCode": "LT"
  },
  {
    "id": 151,
    "name": "Maxima X",
    "city": "Vilnius",
    "address": "Medeinos g. 39",
    "updated": "2025-01-03 16:30:00.788",
    "comment": "Paštomatas yra lauke",
    "latitude": "54.727932",
    "longitude": 25.22082,
    "postalCode": "06138",
    "countryCode": "LT"
  },
  {
    "id": 152,
    "name": "Domus Pro",
    "city": "Vilnius",
    "address": "Ukmergės g. 308",
    "updated": "2025-01-03 16:30:00.792",
    "comment": "Paštomatas yra lauke",
    "latitude": "54.74025",
    "longitude": 25.225274,
    "postalCode": "12110",
    "countryCode": "LT"
  },
  {
    "id": 153,
    "name": "Maxima X",
    "city": "Vilnius",
    "address": "Nemenčinės pl. 33",
    "updated": "2025-01-03 16:30:00.796",
    "comment": "Paštomatas yra lauke",
    "latitude": "54.734713",
    "longitude": 25.339074,
    "postalCode": "10105",
    "countryCode": "LT"
  },
  {
    "id": 154,
    "name": "Maxima X",
    "city": "Vilnius",
    "address": "Dariaus ir Girėno g. 19B",
    "updated": "2025-01-03 16:30:00.8",
    "comment": "Paštomatas yra lauke",
    "latitude": "54.653869",
    "longitude": 25.270234,
    "postalCode": "02184",
    "countryCode": "LT"
  },
  {
    "id": 155,
    "name": "Norfa",
    "city": "Vilnius",
    "address": "Rygos g. 49",
    "updated": "2025-01-03 16:30:00.803",
    "comment": "Paštomatas yra lauke",
    "latitude": "54.718947",
    "longitude": 25.212217,
    "postalCode": "05203",
    "countryCode": "LT"
  },
  {
    "id": 156,
    "name": "Rimi Pilaitė",
    "city": "Vilnius",
    "address": "Vydūno g. 4",
    "updated": "2025-01-03 16:30:00.808",
    "comment": "Paštomatas yra lauke",
    "latitude": "54.707196",
    "longitude": 25.187515,
    "postalCode": "06204",
    "countryCode": "LT"
  },
  {
    "id": 157,
    "name": "IKI Pavasaris",
    "city": "Vilnius",
    "address": "Jonažolių g. 1",
    "updated": "2025-01-03 16:30:00.812",
    "comment": "Paštomatas yra lauke prie sienos už taromato",
    "latitude": "54.667097",
    "longitude": 25.215219,
    "postalCode": "04134",
    "countryCode": "LT"
  },
  {
    "id": 158,
    "name": "IKI Šeškinė",
    "city": "Vilnius",
    "address": "Šeškinės g. 32",
    "updated": "2025-01-03 16:30:00.815",
    "comment": "Paštomatas yra lauke",
    "latitude": "54.715015",
    "longitude": 25.245527,
    "postalCode": "07157",
    "countryCode": "LT"
  },
  {
    "id": 159,
    "name": "Rimi Šiaurės miestelis",
    "city": "Vilnius",
    "address": "Žirmūnų g. 64",
    "updated": "2025-01-03 16:30:00.818",
    "comment": "Paštomatas yra lauke",
    "latitude": "54.712751",
    "longitude": 25.300704,
    "postalCode": "09131",
    "countryCode": "LT"
  },
  {
    "id": 160,
    "name": "Maxima XX",
    "city": "Vilnius",
    "address": "Sausio 13-osios g. 2",
    "updated": "2025-01-03 16:30:00.822",
    "comment": "Paštomatas yra lauke",
    "latitude": "54.692949",
    "longitude": 25.220924,
    "postalCode": "04343",
    "countryCode": "LT"
  },
  {
    "id": 161,
    "name": "GO9",
    "city": "Vilnius",
    "address": "Gedimino pr. 9",
    "updated": "2025-01-03 16:30:00.825",
    "comment": "Paštomatą rasite viduje",
    "latitude": "54.686979",
    "longitude": 25.281569,
    "postalCode": "01105",
    "countryCode": "LT"
  },
  {
    "id": 162,
    "name": "Pigu.lt",
    "city": "Vilnius",
    "address": "Saltoniškių g. 29",
    "updated": "2025-01-03 16:30:00.829",
    "comment": "Paštomatas yra lauke",
    "latitude": "54.696932",
    "longitude": 25.255789,
    "postalCode": "08105",
    "countryCode": "LT"
  },
  {
    "id": 163,
    "name": "Dominikonų g. ",
    "city": "Vilnius",
    "address": "Dominikonų g. 4",
    "updated": "2025-01-03 16:30:00.833",
    "comment": "Paštomatas yra lauke",
    "latitude": "54.680897",
    "longitude": 25.283554,
    "postalCode": "01131",
    "countryCode": "LT"
  },
  {
    "id": 164,
    "name": "IKI Plytinės",
    "city": "Vilnius",
    "address": "Saulėtekio al. 43",
    "updated": "2025-01-03 16:30:00.836",
    "comment": "Paštomatas yra lauke ",
    "latitude": "54.725243",
    "longitude": 25.342348,
    "postalCode": "10227",
    "countryCode": "LT"
  },
  {
    "id": 165,
    "name": "Rimi Naujoji Vilnia",
    "city": "Vilnius",
    "address": "Šiaurės g. 37",
    "updated": "2025-01-03 16:30:00.84",
    "comment": "Paštomatas yra lauke prie PC RIMI ",
    "latitude": "54.700615",
    "longitude": 25.410053,
    "postalCode": "11107",
    "countryCode": "LT"
  },
  {
    "id": 166,
    "name": "Norfa",
    "city": "Vilnius",
    "address": "A.P Kavoliuko g. 6",
    "updated": "2025-01-03 16:30:00.843",
    "comment": "Paštomatas stovi lauke prie prekybos centro šoninės sienos.",
    "latitude": "54.697866",
    "longitude": 25.210894,
    "postalCode": "04326",
    "countryCode": "LT"
  },
  {
    "id": 167,
    "name": "Norfa",
    "city": "Vilnius",
    "address": "Salininkų g. 129A",
    "updated": "2025-01-03 16:30:00.846",
    "comment": "Paštomatas yra lauke prie prekybos centro šoninės sienos.",
    "latitude": "54.605287",
    "longitude": 25.264065,
    "postalCode": "02210",
    "countryCode": "LT"
  },
  {
    "id": 168,
    "name": "Rimi Rygos",
    "city": "Vilnius",
    "address": "Rygos g. 8",
    "updated": "2025-01-03 16:30:00.849",
    "comment": "Paštomatas yra lauke. Prie prekybos centro šoninės sienos.",
    "latitude": "54.71534",
    "longitude": 25.22446,
    "postalCode": "05270",
    "countryCode": "LT"
  },
  {
    "id": 169,
    "name": "Rimi Bendorėliai",
    "city": "Vilnius",
    "address": "Senasis Ukmergės kl. 46A",
    "updated": "2025-01-03 16:30:00.852",
    "comment": "Paštomatas yra lauke ",
    "latitude": "54.77736",
    "longitude": 25.19205,
    "postalCode": "14302",
    "countryCode": "LT"
  },
  {
    "id": 170,
    "name": "Maxima XX",
    "city": "Vilnius",
    "address": "Santaros g. 5",
    "updated": "2025-01-03 16:30:00.855",
    "comment": "Paštomatas yra lauke",
    "latitude": "54.756978",
    "longitude": 25.277948,
    "postalCode": "08409",
    "countryCode": "LT"
  },
  {
    "id": 171,
    "name": "Maxima X",
    "city": "Vilnius",
    "address": "Žaliųjų ežerų g. 207",
    "updated": "2025-01-03 16:30:00.858",
    "comment": "Paštomatas yra lauke",
    "latitude": "54.800706",
    "longitude": 25.348568,
    "postalCode": "08471",
    "countryCode": "LT"
  },
  {
    "id": 172,
    "name": "Rimi Pavilnionių",
    "city": "Vilnius",
    "address": "Pavilnionių g. 22",
    "updated": "2025-01-03 16:30:00.863",
    "comment": "Paštomatas yra lauke",
    "latitude": "54.735449",
    "longitude": 25.217641,
    "postalCode": "05273",
    "countryCode": "LT"
  },
  {
    "id": 173,
    "name": "Maxima",
    "city": "Vilnius",
    "address": "P.Žvirkos g. 1",
    "updated": "2025-01-03 16:30:00.866",
    "comment": "Paštomatas yra lauke",
    "latitude": "54.658286",
    "longitude": 25.154052,
    "postalCode": "02210",
    "countryCode": "LT"
  },
  {
    "id": 174,
    "name": "LIDL",
    "city": "Vilnius",
    "address": "Kapsų g. 1",
    "updated": "2025-01-03 16:30:00.869",
    "comment": "Paštomatas yra lauke ",
    "latitude": "54.660971",
    "longitude": 25.27617,
    "postalCode": "02169",
    "countryCode": "LT"
  },
  {
    "id": 175,
    "name": "LIDL",
    "city": "Vilnius",
    "address": "Kalvarijų g.  180",
    "updated": "2025-01-03 16:30:00.874",
    "comment": "Paštomatas yra lauke matomas nuo Tauragnų g. pusės",
    "latitude": "54.713975",
    "longitude": 25.28396,
    "postalCode": "08204",
    "countryCode": "LT"
  },
  {
    "id": 176,
    "name": "LIDL",
    "city": "Vilnius",
    "address": "Dūkštų g. 34 ",
    "updated": "2025-01-03 16:30:00.876",
    "comment": "Paštomatas yra lauke prie prekybos centro šoninės sienos.",
    "latitude": "54.711659",
    "longitude": 25.240919,
    "postalCode": "07171",
    "countryCode": "LT"
  },
  {
    "id": 177,
    "name": "LIDL",
    "city": "Vilnius",
    "address": "Rasų g. 9A",
    "updated": "2025-01-03 16:30:00.88",
    "comment": "Paštomatas yra lauke",
    "latitude": "54.673489",
    "longitude": 25.295791,
    "postalCode": "02102",
    "countryCode": "LT"
  },
  {
    "id": 178,
    "name": "LIDL",
    "city": "Vilnius",
    "address": "Sausio 13-osios g. 3",
    "updated": "2025-01-03 16:30:00.883",
    "comment": "Paštomatas yra prekybos centro požeminėje automobilių stovėjimo aikštelėje.",
    "latitude": "54.69324",
    "longitude": 25.2188,
    "postalCode": "04343",
    "countryCode": "LT"
  },
  {
    "id": 179,
    "name": "Rimi Tarandė",
    "city": "Vilnius",
    "address": "Vaivadiškių g. 2",
    "updated": "2025-01-03 16:30:00.886",
    "comment": "Paštomatas stovi lauke prie prekybos centro šoninės sienos.",
    "latitude": "54.748531",
    "longitude": 25.203193,
    "postalCode": "12151",
    "countryCode": "LT"
  },
  {
    "id": 180,
    "name": "LIDL",
    "city": "Vilnius",
    "address": "Nidos g. 1",
    "updated": "2025-01-03 16:30:00.896",
    "comment": "Paštomatas yra lauke prie prekybos centro šoninės sienos.",
    "latitude": "54.710157",
    "longitude": 25.185543,
    "postalCode": "06293",
    "countryCode": "LT"
  },
  {
    "id": 181,
    "name": "Norfa ",
    "city": "Vilnius",
    "address": "Mokyklos g.2C",
    "updated": "25.4121",
    "comment": "2025-01-03 16:30:00.901",
    "latitude": "13104",
    "longitude": 54.712,
    "postalCode": " Galgiai",
    "countryCode": "LT"
  },
  {
    "id": 182,
    "name": "LIDL",
    "city": "Vilnius",
    "address": "J. Tiškevičiaus g. 17",
    "updated": "2025-01-03 16:30:00.908",
    "comment": "Paštomatas stovi lauke. Matomas iš prekybos centro automobilių stovėjimo aikštelės.",
    "latitude": "54.624853",
    "longitude": 25.111974,
    "postalCode": "02231",
    "countryCode": "LT"
  },
  {
    "id": 183,
    "name": "LIDL",
    "city": "Vilnius",
    "address": "Vėtrungių g. 16",
    "updated": "2025-01-03 16:30:00.919",
    "comment": "Paštomatas yra lauke prie prekybos centro šoninės sienos.",
    "latitude": "54.738137",
    "longitude": 25.230641,
    "postalCode": "06305",
    "countryCode": "LT"
  },
  {
    "id": 184,
    "name": "LIDL",
    "city": "Vilnius",
    "address": "Žirmūnų g. 67",
    "updated": "2025-01-03 16:30:00.928",
    "comment": "Paštomatas stovi lauke prie prekybos centro šoninės sienos.",
    "latitude": "54.716969",
    "longitude": 25.305955,
    "postalCode": "09112",
    "countryCode": "LT"
  },
  {
    "id": 185,
    "name": "LIDL",
    "city": "Vilnius",
    "address": "S. Stanevičiaus g. 2A",
    "updated": "2025-01-03 16:30:00.941",
    "comment": "Paštomatas stovi lauke. Matomas iš prekybos centro automobilių stovėjimo aikštelės.",
    "latitude": "54.720923",
    "longitude": 25.254885,
    "postalCode": "07129",
    "countryCode": "LT"
  },
  {
    "id": 186,
    "name": "Verslo namai Paupys",
    "city": "Vilnius",
    "address": "Aukštaičių g. 7",
    "updated": "2025-01-03 16:30:00.954",
    "comment": "Paštomatas stovi lauke prie Verslo namai \"Paupys\" galinės pastato sienos. Matomas iš Paupio g. pusės.",
    "latitude": "54.678929",
    "longitude": 25.304512,
    "postalCode": "11341",
    "countryCode": "LT"
  },
  {
    "id": 187,
    "name": "Maxima Avižieniai",
    "city": "Vilnius",
    "address": "Saulės g. 1",
    "updated": "2025-01-03 16:30:00.963",
    "comment": "Paštomatas stovi lauke prie prekybos centro šoninės sienos. Matomas iš Sudervės g. pusės",
    "latitude": "54.763937",
    "longitude": 25.194016,
    "postalCode": "14185",
    "countryCode": "LT"
  },
  {
    "id": 188,
    "name": "Maxima",
    "city": "Vilnius",
    "address": "Moravų g. 7",
    "updated": "2025-01-03 16:30:00.972",
    "comment": "Paštomatas stovi lauke",
    "latitude": "54.65048",
    "longitude": 25.324844,
    "postalCode": "11329",
    "countryCode": "LT"
  },
  {
    "id": 189,
    "name": "Norfa ",
    "city": "Vilnius",
    "address": "Zujūnų g. 1",
    "updated": "2025-01-03 16:30:00.978",
    "comment": "Paštomatas stovi lauke. Prie prekybos centro šoninės sienos.",
    "latitude": "54.711052",
    "longitude": 25.160387,
    "postalCode": "06282",
    "countryCode": "LT"
  },
  {
    "id": 190,
    "name": "Lidl",
    "city": "Vilnius",
    "address": "Pramonės g. 17A",
    "updated": "2025-01-03 16:30:00.989",
    "comment": "Paštomatas stovi lauke.Matomas iš Pramonės g. pusės.",
    "latitude": "54.69255",
    "longitude": 25.41212,
    "postalCode": "11118",
    "countryCode": "LT"
  },
  {
    "id": 191,
    "name": "Express Market",
    "city": "Vilnius",
    "address": "L.Sapiegos g. 1C",
    "updated": "2025-01-03 16:30:01.001",
    "comment": "Paštomatas stovi lauke prie prekybos centro šoninės sienos. Matomas iš L.Sapiegos ir Mildos g.",
    "latitude": "54.696405",
    "longitude": 25.310901,
    "postalCode": "10312",
    "countryCode": "LT"
  },
  {
    "id": 192,
    "name": "LIDL",
    "city": "Vilnius",
    "address": "Gariūnų g. 66",
    "updated": "2025-01-03 16:30:01.009",
    "comment": "Paštomatas randasi lauke prie prekybos centro šoninės sienos. Matomas nuo Gariūnų g.",
    "latitude": "54.658066",
    "longitude": 25.156287,
    "postalCode": "02300",
    "countryCode": "LT"
  },
  {
    "id": 193,
    "name": "Express Market",
    "city": "Vilnius",
    "address": "Pelesos g. 57",
    "updated": "2025-01-03 16:30:01.013",
    "comment": "Paštomatas stovi lauke prie perkybos centro sienos",
    "latitude": "54.670633",
    "longitude": 25.289441,
    "postalCode": "02109",
    "countryCode": "LT"
  },
  {
    "id": 194,
    "name": "Rimi Galgiai",
    "city": "Vilnius",
    "address": "Žvaigždikių g. 2",
    "updated": "2025-01-03 16:30:01.016",
    "comment": "Paštomatas stovi lauke prie įėjimo į prekybos centrą.",
    "latitude": "54.72587",
    "longitude": 25.41182,
    "postalCode": "10238",
    "countryCode": "LT"
  },
  {
    "id": 195,
    "name": "IKI",
    "city": "Vilnius",
    "address": "Vaduvos g. 4",
    "updated": "2025-01-03 16:30:01.022",
    "comment": "Paštomatas stovi lauke prie prekybos centro šoninės sienos. Matomas iš šoninės prekybos centro automobilių aikštelės.",
    "latitude": "54.64226",
    "longitude": 25.20504,
    "postalCode": "02304",
    "countryCode": "LT"
  },
  {
    "id": 196,
    "name": "Pašto skyrius",
    "city": "Vilnius",
    "address": "Antakalnio g. 75",
    "updated": "2025-01-03 16:30:01.036",
    "comment": "Paštomatas yra prie pašto skyriaus.",
    "latitude": "54.714904",
    "longitude": 25.31649,
    "postalCode": "10213",
    "countryCode": "LT"
  },
  {
    "id": 197,
    "name": "Rimi Zujūnai",
    "city": "Antežeriai",
    "address": "Žirgų g. 24",
    "updated": "2025-01-03 16:30:01.045",
    "comment": "Paštomatas stovi lauke prie prekybos centro šoninės sienos.",
    "latitude": "54.73216",
    "longitude": 25.18406,
    "postalCode": "14158",
    "countryCode": "LT"
  },
  {
    "id": 198,
    "name": "Maxima",
    "city": "Vilnius",
    "address": "Lazdynėlių g. 23",
    "updated": "2025-01-03 16:30:01.055",
    "comment": "Paštomatas stovi lauke prie prekybos centro šoninės pusės. Matomas iš Lazdynėlių g. pusės",
    "latitude": "54.66283",
    "longitude": 25.19253,
    "postalCode": "04126",
    "countryCode": "LT"
  },
  {
    "id": 199,
    "name": "Express Market",
    "city": "Vilnius",
    "address": "Žirmūnų g. 48A",
    "updated": "2025-01-03 16:30:01.065",
    "comment": "Paštomatas stovi lauke prie įėjimo į parduotuvę.",
    "latitude": "54.70274",
    "longitude": 25.30368,
    "postalCode": "09226",
    "countryCode": "LT"
  },
  {
    "id": 201,
    "name": "Akropolis",
    "city": "Kaunas",
    "address": "Karaliaus Mindaugo pr. 49",
    "updated": "2025-01-03 16:30:01.078",
    "comment": "Paštomatas yra lauke prie I-A įėjimo.",
    "latitude": "54.891918",
    "longitude": 23.918245,
    "postalCode": "44345",
    "countryCode": "LT"
  },
  {
    "id": 202,
    "name": "Maxima XXX",
    "city": "Kaunas",
    "address": "Savanorių pr. 255",
    "updated": "2025-01-03 16:30:01.085",
    "comment": "Paštomatas yra lauke",
    "latitude": "54.915855",
    "longitude": 23.937761,
    "postalCode": "50147",
    "countryCode": "LT"
  },
  {
    "id": 204,
    "name": "LIDL",
    "city": "Kaunas",
    "address": "Ežero g. 3",
    "updated": "2025-01-03 16:30:01.089",
    "comment": "Paštomatas stovi lauke",
    "latitude": "54.91998",
    "longitude": 23.82545,
    "postalCode": "47166",
    "countryCode": "LT"
  },
  {
    "id": 205,
    "name": "MEGA",
    "city": "Kaunas",
    "address": "Islandijos pl. 32",
    "updated": "2025-01-03 16:30:01.093",
    "comment": "Paštomatas yra lauke",
    "latitude": "54.939388",
    "longitude": 23.889033,
    "postalCode": "47446",
    "countryCode": "LT"
  },
  {
    "id": 207,
    "name": "Maxima XXX",
    "city": "Kaunas",
    "address": "Pramonės pr. 29",
    "updated": "2025-01-03 16:30:01.097",
    "comment": "Paštomatas yra lauke",
    "latitude": "54.911727",
    "longitude": 23.982351,
    "postalCode": "51270",
    "countryCode": "LT"
  },
  {
    "id": 208,
    "name": "LIDL",
    "city": "Kaunas",
    "address": "A. Juozapavičiaus pr. 125",
    "updated": "2025-01-03 16:30:01.109",
    "comment": "Paštomatas yra lauke",
    "latitude": "54.878781",
    "longitude": 23.932774,
    "postalCode": "45267",
    "countryCode": "LT"
  },
  {
    "id": 210,
    "name": "Lapių pašto skyrius",
    "city": "Lapės",
    "address": "A. Merkio g. 1",
    "updated": "2025-01-03 16:30:01.12",
    "comment": "Paštomatas yra lauke. Prie pašto skyriaus šoninės sienos.",
    "latitude": "54.974278",
    "longitude": 24.006146,
    "postalCode": "54434",
    "countryCode": "LT"
  },
  {
    "id": 211,
    "name": "Express Market",
    "city": "Kaunas",
    "address": "K. Petrausko g. 6",
    "updated": "2025-01-03 16:30:01.125",
    "comment": "Paštomatas yra lauke",
    "latitude": "54.908024",
    "longitude": 23.929138,
    "postalCode": "44149",
    "countryCode": "LT"
  },
  {
    "id": 212,
    "name": "Šilas",
    "city": "Kaunas",
    "address": "K. Škirpos g. 17",
    "updated": "2025-01-03 16:30:01.128",
    "comment": "Paštomatas yra lauke",
    "latitude": "54.930144",
    "longitude": 23.943391,
    "postalCode": "49211",
    "countryCode": "LT"
  },
  {
    "id": 213,
    "name": "IKI Lituanica",
    "city": "Kaunas",
    "address": "Jonavos g. 3",
    "updated": "2025-01-03 16:30:01.137",
    "comment": "Paštomatas yra lauke",
    "latitude": "54.901078",
    "longitude": 23.891455,
    "postalCode": "44269",
    "countryCode": "LT"
  },
  {
    "id": 214,
    "name": "Rimi Raudondvaris",
    "city": "Kaunas",
    "address": "Raudondvario pl. 94B",
    "updated": "2025-01-03 16:30:01.145",
    "comment": "Paštomatas yra lauke",
    "latitude": "54.908862",
    "longitude": 23.865671,
    "postalCode": "47180",
    "countryCode": "LT"
  },
  {
    "id": 215,
    "name": "IKI Saulėtekis",
    "city": "Kaunas",
    "address": "V. Krėvės pr. 97",
    "updated": "2025-01-03 16:30:01.156",
    "comment": "Paštomatas yra lauke",
    "latitude": "54.924367",
    "longitude": 23.981633,
    "postalCode": "50369",
    "countryCode": "LT"
  },
  {
    "id": 216,
    "name": "Maxima XX",
    "city": "Kaunas",
    "address": "V. Krėvės pr. 14B",
    "updated": "2025-01-03 16:30:01.167",
    "comment": "Paštomatas yra lauke",
    "latitude": "54.914963",
    "longitude": 23.962239,
    "postalCode": "50416",
    "countryCode": "LT"
  },
  {
    "id": 217,
    "name": "IKI Taubūčiai",
    "city": "Kaunas",
    "address": "Jotvingių g. 15 ",
    "updated": "2025-01-03 16:30:01.179",
    "comment": "Paštomatas yra lauke",
    "latitude": "54.93007",
    "longitude": 23.89739,
    "postalCode": "48124",
    "countryCode": "LT"
  },
  {
    "id": 218,
    "name": "LIDL",
    "city": "Kaunas",
    "address": "K. Baršausko g. 66",
    "updated": "2025-01-03 16:30:01.189",
    "comment": "Paštomatas yra lauke",
    "latitude": "54.898971",
    "longitude": 23.963608,
    "postalCode": "51436",
    "countryCode": "LT"
  },
  {
    "id": 219,
    "name": "Norfa",
    "city": "Kaunas",
    "address": "Baltų pr. 195",
    "updated": "2025-01-03 16:30:01.197",
    "comment": "Paštomatas yra lauke",
    "latitude": "54.916321",
    "longitude": 23.863576,
    "postalCode": "47120",
    "countryCode": "LT"
  },
  {
    "id": 220,
    "name": "IKI Girstupis",
    "city": "Kaunas",
    "address": "Kovo 11-osios g. 22",
    "updated": "2025-01-03 16:30:01.206",
    "comment": "Paštomatas yra lauke",
    "latitude": "54.906075",
    "longitude": 23.974789,
    "postalCode": "51349",
    "countryCode": "LT"
  },
  {
    "id": 221,
    "name": "Norfa",
    "city": "Kaunas",
    "address": "Šiaurės pr. 44",
    "updated": "2025-01-03 16:30:01.213",
    "comment": "Paštomatas yra lauke",
    "latitude": "54.929447",
    "longitude": 23.926754,
    "postalCode": "49227",
    "countryCode": "LT"
  },
  {
    "id": 222,
    "name": "Šilas",
    "city": "Kaunas",
    "address": "Taikos pr. 31A",
    "updated": "2025-01-03 16:30:01.224",
    "comment": "Paštomatas yra lauke",
    "latitude": "54.911796",
    "longitude": 23.947242,
    "postalCode": "50229",
    "countryCode": "LT"
  },
  {
    "id": 223,
    "name": "Rimi Juozapavičiaus",
    "city": "Kaunas",
    "address": "A.Juozapavičiaus pr. 11",
    "updated": "2025-01-03 16:30:01.229",
    "comment": "Paštomatas yra lauke",
    "latitude": "54.866074",
    "longitude": 23.947158,
    "postalCode": "45252",
    "countryCode": "LT"
  },
  {
    "id": 224,
    "name": "LIDL",
    "city": "Kaunas",
    "address": "Savanorių pr. 315",
    "updated": "2025-01-03 16:30:01.232",
    "comment": "Paštomatas yra lauke",
    "latitude": "54.918952",
    "longitude": 23.950277,
    "postalCode": "50122",
    "countryCode": "LT"
  },
  {
    "id": 225,
    "name": "Express Market",
    "city": "Kaunas",
    "address": "K. Donelaičio g. 44a",
    "updated": "2025-01-03 16:30:01.236",
    "comment": "Paštomatas yra lauke",
    "latitude": "54.89896776",
    "longitude": 23.918991326,
    "postalCode": "44241",
    "countryCode": "LT"
  },
  {
    "id": 226,
    "name": "Šilas",
    "city": "Kaunas",
    "address": "M. Gimbutienės g. 3",
    "updated": "2025-01-03 16:30:01.244",
    "comment": "Paštomatas yra lauke",
    "latitude": "54.892347",
    "longitude": 24.004377,
    "postalCode": "52350",
    "countryCode": "LT"
  },
  {
    "id": 227,
    "name": "IKI Vaišvydava",
    "city": "Kaunas",
    "address": "Didžioji g. 98",
    "updated": "2025-01-03 16:30:01.255",
    "comment": "Paštomatas yra lauke",
    "latitude": "54.854678",
    "longitude": 24.013443,
    "postalCode": "45462",
    "countryCode": "LT"
  },
  {
    "id": 228,
    "name": "Express Market",
    "city": "Kaunas",
    "address": "Pilėnų g. 1",
    "updated": "23.823147",
    "comment": "2025-01-03 16:30:01.264",
    "latitude": "53347",
    "longitude": 54.896007,
    "postalCode": " Akademija",
    "countryCode": "LT"
  },
  {
    "id": 229,
    "name": "Express Market",
    "city": "Kaunas",
    "address": "Marių g. 2",
    "updated": "2025-01-03 16:30:01.277",
    "comment": "Paštomatas yra lauke",
    "latitude": "54.914602",
    "longitude": 24.063212,
    "postalCode": "52263",
    "countryCode": "LT"
  },
  {
    "id": 230,
    "name": "IKI Baltai",
    "city": "Kaunas",
    "address": "Baltų pr. 81",
    "updated": "2025-01-03 16:30:01.29",
    "comment": "Paštomatas yra lauke",
    "latitude": "54.927074",
    "longitude": 23.87908,
    "postalCode": "48231",
    "countryCode": "LT"
  },
  {
    "id": 231,
    "name": "Maxima X",
    "city": "Kaunas",
    "address": "Vandžiogalos pl. 106A",
    "updated": "23.898054",
    "comment": "2025-01-03 16:30:01.3",
    "latitude": "54358",
    "longitude": 54.953319,
    "postalCode": " Domeikava",
    "countryCode": "LT"
  },
  {
    "id": 232,
    "name": "Rimi Varniai",
    "city": "Kaunas",
    "address": "Varnių g. 41",
    "updated": "2025-01-03 16:30:01.306",
    "comment": "Paštomatas yra lauke",
    "latitude": "54.915901",
    "longitude": 23.901459,
    "postalCode": "48414",
    "countryCode": "LT"
  },
  {
    "id": 233,
    "name": "Savas",
    "city": "Kaunas",
    "address": "Savanorių pr. 346",
    "updated": "2025-01-03 16:30:01.316",
    "comment": "Paštomatas yra lauke",
    "latitude": "54.921706",
    "longitude": 23.963338,
    "postalCode": "49428",
    "countryCode": "LT"
  },
  {
    "id": 234,
    "name": "LIDL",
    "city": "Kaunas",
    "address": "Veiverių g. 146",
    "updated": "2025-01-03 16:30:01.324",
    "comment": "Paštomatas yra lauke ",
    "latitude": "54.869355",
    "longitude": 23.887494,
    "postalCode": "46354",
    "countryCode": "LT"
  },
  {
    "id": 235,
    "name": "Šilas",
    "city": "Kaunas",
    "address": "Lubinų g. 155",
    "updated": "2025-01-03 16:30:01.328",
    "comment": "Paštomatas yra lauke",
    "latitude": "54.94542",
    "longitude": 23.828236,
    "postalCode": "47222",
    "countryCode": "LT"
  },
  {
    "id": 236,
    "name": "Šilas",
    "city": "Kaunas",
    "address": "Pašilės g. 108 ",
    "updated": "2025-01-03 16:30:01.332",
    "comment": "Paštomatas yra lauke",
    "latitude": "54.909389",
    "longitude": 23.96517,
    "postalCode": "51313",
    "countryCode": "LT"
  },
  {
    "id": 237,
    "name": "Express Market",
    "city": "Kaunas",
    "address": "Kalniečių g. 172 ",
    "updated": "2025-01-03 16:30:01.34",
    "comment": "Paštomatas yra lauke prie PC Express Market šoninės sienos.",
    "latitude": "54.919979",
    "longitude": 23.932842,
    "postalCode": "50138",
    "countryCode": "LT"
  },
  {
    "id": 238,
    "name": "B and B Hotel",
    "city": "Karmėlava",
    "address": "Vilniaus g. 52A",
    "updated": "24.0692",
    "comment": "2025-01-03 16:30:01.349",
    "latitude": "54459",
    "longitude": 54.972227,
    "postalCode": " Karmėlava",
    "countryCode": "LT"
  },
  {
    "id": 239,
    "name": "Šilas",
    "city": "Noreikiškės",
    "address": "Šiltnamių g. 19",
    "updated": "2025-01-03 16:30:01.36",
    "comment": "Paštomatas stovi lauke",
    "latitude": "54.890142",
    "longitude": 23.853656,
    "postalCode": "53363",
    "countryCode": "LT"
  },
  {
    "id": 240,
    "name": "Rimi Europos",
    "city": "Kaunas",
    "address": "Europos pr. 43",
    "updated": "2025-01-03 16:30:01.371",
    "comment": "Paštomatas yra lauke prie prekybos centro šoninės sienos.",
    "latitude": "54.87602",
    "longitude": 23.912428,
    "postalCode": "46329",
    "countryCode": "LT"
  },
  {
    "id": 241,
    "name": "Rimi Prancūzų",
    "city": "Kaunas",
    "address": "Prancūzų g. 81",
    "updated": "2025-01-03 16:30:01.38",
    "comment": "Paštomatas yra lauke prie prekybos centro pastato šoninės sienos.",
    "latitude": "54.891546",
    "longitude": 23.949199,
    "postalCode": "44426",
    "countryCode": "LT"
  },
  {
    "id": 242,
    "name": "Urmo prekybos miestelis",
    "city": "Kaunas",
    "address": "Pramonės pr. 16",
    "updated": "2025-01-03 16:30:01.391",
    "comment": "Paštomatas yra Urmo prekybos bazės aikštelėje",
    "latitude": "54.916087",
    "longitude": 23.986894,
    "postalCode": "51271",
    "countryCode": "LT"
  },
  {
    "id": 243,
    "name": "IKI Naujalis",
    "city": "Raudondvaris",
    "address": "J.Naujalio g. 20B",
    "updated": "2025-01-03 16:30:01.397",
    "comment": "Paštomatas yra lauke ",
    "latitude": "54.938784",
    "longitude": 23.777461,
    "postalCode": "54138",
    "countryCode": "LT"
  },
  {
    "id": 244,
    "name": "LIDL",
    "city": "Kaunas",
    "address": "Jonavos g. 40",
    "updated": "2025-01-03 16:30:01.408",
    "comment": "Paštomatas randasi lauke . Matomas iš automobilių stovėjimo aikštelės.",
    "latitude": "54.901922",
    "longitude": 23.896822,
    "postalCode": "44263",
    "countryCode": "LT"
  },
  {
    "id": 245,
    "name": "LIDL",
    "city": "Kaunas",
    "address": "Šiaurės pr. 1A",
    "updated": "2025-01-03 16:30:01.413",
    "comment": "Paštomatas yra lauke",
    "latitude": "54.929457",
    "longitude": 23.969267,
    "postalCode": "49188",
    "countryCode": "LT"
  },
  {
    "id": 247,
    "name": "LIDL",
    "city": "Kaunas",
    "address": "Baltų pr. 10",
    "updated": "2025-01-03 16:30:01.416",
    "comment": "Paštomatas stovi lauke. Matomas nuo prekybos centro automobilių stovėjimo aikštelės.",
    "latitude": "54.931874",
    "longitude": 23.887029,
    "postalCode": "48165",
    "countryCode": "LT"
  },
  {
    "id": 248,
    "name": "Rimi Krėvės",
    "city": "Kaunas",
    "address": "V. Krėvės pr.  43A",
    "updated": "2025-01-03 16:30:01.427",
    "comment": "Paštomatas stovi lauke prie prekybos centro šoninės sienos. Matomas iš V.Krėvės pr. pusės.",
    "latitude": "54.917479",
    "longitude": 23.966604,
    "postalCode": "49440",
    "countryCode": "LT"
  },
  {
    "id": 249,
    "name": "Rimi Studentų",
    "city": "Kaunas",
    "address": "Studentų g. 19",
    "updated": "2025-01-03 16:30:01.433",
    "comment": "Paštomatas stovi lauke. Matomas iš Studentų g. pusės",
    "latitude": "54.908534",
    "longitude": 23.951524,
    "postalCode": "50240",
    "countryCode": "LT"
  },
  {
    "id": 250,
    "name": "Maxima",
    "city": "Kaunas",
    "address": "Rokų g. 17",
    "updated": "2025-01-03 16:30:01.44",
    "comment": "Paštomatas stovi lauke. Matomas iš prekybos centro automobilių stovėjimo aikštelės.",
    "latitude": "54.840706",
    "longitude": 23.94856,
    "postalCode": "46114",
    "countryCode": "LT"
  },
  {
    "id": 251,
    "name": "Rimi Ringaudai",
    "city": "Kaunas",
    "address": "Varžupio g. 1",
    "updated": "2025-01-03 16:30:01.447",
    "comment": "Paštomatas stovi lauke prie prekybos centro šoninės sienos.  Matomas nuo įvažiavimo į prekybos centro automobilių stovėjimo aikštelę.",
    "latitude": "54.893832",
    "longitude": 23.81412,
    "postalCode": "53349",
    "countryCode": "LT"
  },
  {
    "id": 253,
    "name": "Express Market",
    "city": "Kaunas",
    "address": "Kleboniškio g. 27 B",
    "updated": "2025-01-03 16:30:01.451",
    "comment": "Paštomatas stovi lauke prie prekybos centro lauko sienos.",
    "latitude": "54.95519",
    "longitude": 23.95027,
    "postalCode": "44104",
    "countryCode": "LT"
  },
  {
    "id": 254,
    "name": "Šilas",
    "city": "Kaunas",
    "address": "A. Šapokos g. 38",
    "updated": "2025-01-03 16:30:01.454",
    "comment": "Paštomatas stovi lauke prie pastato sienos netoli įėjimo į prekybos centrą.",
    "latitude": "54.93894",
    "longitude": 23.85762,
    "postalCode": "47250",
    "countryCode": "LT"
  },
  {
    "id": 255,
    "name": "Moki-veži",
    "city": "Narsiečiai",
    "address": "Vytauto g. 183",
    "updated": "2025-01-03 16:30:01.457",
    "comment": "Paštomatas stovi prie prekybos centro lauko sienos. Matomas iš automobilių aiškstelės.",
    "latitude": "54.84409",
    "longitude": 23.87873,
    "postalCode": "53304",
    "countryCode": "LT"
  },
  {
    "id": 256,
    "name": "Rimi Baltijos",
    "city": "Kaunas",
    "address": "Baltijos g. 58",
    "updated": "2025-01-03 16:30:01.466",
    "comment": "Paštomatas stovi lauke",
    "latitude": "54.92054",
    "longitude": 23.87958,
    "postalCode": "48221",
    "countryCode": "LT"
  },
  {
    "id": 257,
    "name": "Maxima",
    "city": "Kaunas",
    "address": "Veiverių g. 150B",
    "updated": "2025-01-03 16:30:01.47",
    "comment": "Paštomatas stovi lauke prie prekybos centro šoninės sienos.",
    "latitude": "54.86473",
    "longitude": 23.88672,
    "postalCode": "46391",
    "countryCode": "LT"
  },
  {
    "id": 258,
    "name": "Maxima",
    "city": "Giraitė",
    "address": "Automagistralės g. 4",
    "updated": "2025-01-03 16:30:01.473",
    "comment": "Paštomatas stovi lauke prie įėjimo į prekybos centrą.",
    "latitude": "54.95973",
    "longitude": 23.85973,
    "postalCode": "54310",
    "countryCode": "LT"
  },
  {
    "id": 259,
    "name": "Lidl",
    "city": "Kaunas",
    "address": "B.Brazdžionio g. 23B",
    "updated": "2025-01-03 16:30:01.475",
    "comment": "Paštomatas stovi lauke prie pastato sienos. Matomas nuo pagrindinės prekybos centro mašinų aišktelės.",
    "latitude": "54.93395",
    "longitude": 23.86307,
    "postalCode": "48184",
    "countryCode": "LT"
  },
  {
    "id": 260,
    "name": "Aibė Neveronys",
    "city": "Kaunas",
    "address": "Keramikų g. 7",
    "updated": "2025-01-03 16:30:01.477",
    "comment": "Paštomatas yra lauke prie įėjimo į prekybos centrą Aibę",
    "latitude": "54.9254",
    "longitude": 24.0915,
    "postalCode": "54488",
    "countryCode": "LT"
  },
  {
    "id": 261,
    "name": "IKI Šilainiai",
    "city": "Kaunas",
    "address": "Žemaičių pl.23",
    "updated": "2025-01-03 16:30:01.48",
    "comment": "Paštomatas yra prie IKI Parduotuvės",
    "latitude": "54.9281",
    "longitude": 23.8851,
    "postalCode": "48244",
    "countryCode": "LT"
  },
  {
    "id": 262,
    "name": "Maxima",
    "city": "Kaunas",
    "address": "Vaidoto g.159",
    "updated": "2025-01-03 16:30:01.482",
    "comment": "Paštomatas yra šalia įėjimo į parduotuvę. Matomos iš Vaidoto gatvės pusės.",
    "latitude": "54.8611",
    "longitude": 23.9554,
    "postalCode": "45392",
    "countryCode": "LT"
  },
  {
    "id": 301,
    "name": "Akropolis",
    "city": "Klaipėda",
    "address": "Taikos pr. 61",
    "updated": "2025-01-03 16:30:01.485",
    "comment": "Paštomatas yra lauke",
    "latitude": "55.694017",
    "longitude": 21.155806,
    "postalCode": "91182",
    "countryCode": "LT"
  },
  {
    "id": 302,
    "name": "Studlendas",
    "city": "Klaipėda",
    "address": "H.Manto g.90-1",
    "updated": "2025-01-03 16:30:01.487",
    "comment": "Paštomatas yra prie IKI įėjimo",
    "latitude": "55.7283",
    "longitude": 21.1244,
    "postalCode": "92295",
    "countryCode": "LT"
  },
  {
    "id": 303,
    "name": "Banginis",
    "city": "Klaipėda",
    "address": "Šilutės pl. 35",
    "updated": "2025-01-03 16:30:01.49",
    "comment": "Paštomatas yra lauke prie prekybos centro įėjimo",
    "latitude": "55.692623",
    "longitude": 21.182081,
    "postalCode": "94105",
    "countryCode": "LT"
  },
  {
    "id": 304,
    "name": "BIG2",
    "city": "Klaipėda",
    "address": "Taikos pr. 141",
    "updated": "2025-01-03 16:30:01.493",
    "comment": "Paštomatas yra lauke",
    "latitude": "55.66424",
    "longitude": 21.177051,
    "postalCode": "94284",
    "countryCode": "LT"
  },
  {
    "id": 307,
    "name": "Maxima X",
    "city": "Klaipėda",
    "address": "H. Manto g. 11",
    "updated": "2025-01-03 16:30:01.495",
    "comment": "Paštomatas yra lauke",
    "latitude": "55.714443",
    "longitude": 21.129341,
    "postalCode": "92130",
    "countryCode": "LT"
  },
  {
    "id": 308,
    "name": "IKI Žardė",
    "city": "Klaipėda",
    "address": "Taikos pr. 115",
    "updated": "2025-01-03 16:30:01.497",
    "comment": "Paštomatas yra lauke",
    "latitude": "55.671888",
    "longitude": 21.17108,
    "postalCode": "94231",
    "countryCode": "LT"
  },
  {
    "id": 309,
    "name": "IKI Tauralaukis",
    "city": "Klaipėda",
    "address": "Liepojos g. 238",
    "updated": "2025-01-03 16:30:01.499",
    "comment": "Paštomatas yra lauke",
    "latitude": "55.753176",
    "longitude": 21.131938,
    "postalCode": "92330",
    "countryCode": "LT"
  },
  {
    "id": 311,
    "name": "LIDL",
    "city": "Klaipėda",
    "address": "Smiltelės g. 19",
    "updated": "2025-01-03 16:30:01.501",
    "comment": "Paštomatas yra lauke",
    "latitude": "55.669429",
    "longitude": 21.193021,
    "postalCode": "95186",
    "countryCode": "LT"
  },
  {
    "id": 312,
    "name": "Čia Market",
    "city": "Klaipėda",
    "address": "Mogiliovo g. 12",
    "updated": "2025-01-03 16:30:01.504",
    "comment": "Paštomatas yra lauke",
    "latitude": "55.66367",
    "longitude": 21.19983,
    "postalCode": "95221",
    "countryCode": "LT"
  },
  {
    "id": 313,
    "name": "Senukai",
    "city": "Klaipėda",
    "address": "Liepų g. 81",
    "updated": "2025-01-03 16:30:01.506",
    "comment": "Paštomatas yra lauke ",
    "latitude": "55.722442",
    "longitude": 21.155731,
    "postalCode": "92195",
    "countryCode": "LT"
  },
  {
    "id": 314,
    "name": "Rimi Slengiai",
    "city": "Klaipėda",
    "address": "Dangaus g. 34",
    "updated": "21.191818",
    "comment": "2025-01-03 16:30:01.509",
    "latitude": "92343",
    "longitude": 55.736839,
    "postalCode": " Slengiai",
    "countryCode": "LT"
  },
  {
    "id": 316,
    "name": "Rimi Dercekliai",
    "city": "Klaipėda",
    "address": "Nidos g. 1",
    "updated": "21.270966",
    "comment": "2025-01-03 16:30:01.511",
    "latitude": "96383",
    "longitude": 55.578416,
    "postalCode": " Dercekliai",
    "countryCode": "LT"
  },
  {
    "id": 317,
    "name": "Technorama",
    "city": "Klaipėda",
    "address": "Taikos pr.39",
    "updated": "2025-01-03 16:30:01.513",
    "comment": "Paštomatas yra prie Technoramos",
    "latitude": "55.698",
    "longitude": 21.1465,
    "postalCode": "91150",
    "countryCode": "LT"
  },
  {
    "id": 318,
    "name": "LIDL",
    "city": "Klaipėda",
    "address": "Taikos pr. 66B",
    "updated": "2025-01-03 16:30:01.516",
    "comment": "Paštomatas yra lauke prie prekybos centro šoninės sienos .",
    "latitude": "55.68359",
    "longitude": 21.15969,
    "postalCode": "93219",
    "countryCode": "LT"
  },
  {
    "id": 319,
    "name": "LIDL",
    "city": "Klaipėda",
    "address": "Tilžės g. 56B",
    "updated": "2025-01-03 16:30:01.519",
    "comment": "Paštomatas yra lauke ",
    "latitude": "55.704179",
    "longitude": 21.158502,
    "postalCode": "91110",
    "countryCode": "LT"
  },
  {
    "id": 320,
    "name": " Pepco",
    "city": "Klaipėda",
    "address": "H. Manto g. 36",
    "updated": "2025-01-03 16:30:01.522",
    "comment": "Paštomatas yra lauke. Prekybos centro arkoje.",
    "latitude": "55.716157",
    "longitude": 21.129164,
    "postalCode": "92233",
    "countryCode": "LT"
  },
  {
    "id": 321,
    "name": "IKI Naikupė",
    "city": "Klaipėda",
    "address": "Nidos g. 5",
    "updated": "2025-01-03 16:30:01.525",
    "comment": "Paštomatas randasi lauke prie prekybos centro šoninės sienos.",
    "latitude": "55.678635",
    "longitude": 21.156466,
    "postalCode": "93216",
    "countryCode": "LT"
  },
  {
    "id": 322,
    "name": "IKI",
    "city": "Klaipėda",
    "address": "Priestočio g. 24",
    "updated": "2025-01-03 16:30:01.527",
    "comment": "Paštomatas stovi lauke prie prekybos centro šoninės sienos.Matomas iš Priestočio g. pusės.",
    "latitude": "55.719744",
    "longitude": 21.138372,
    "postalCode": "92228",
    "countryCode": "LT"
  },
  {
    "id": 323,
    "name": "Rimi Klipščiai",
    "city": "Klaipėda",
    "address": "Žaliakelio g. 1",
    "updated": "2025-01-03 16:30:01.53",
    "comment": "Paštomatas stovi lauke prie įėjimo į prekybos centrą.",
    "latitude": "55.75237",
    "longitude": 21.17493,
    "postalCode": "92338",
    "countryCode": "LT"
  },
  {
    "id": 324,
    "name": "Gausa",
    "city": "Klaipėda",
    "address": "Taikos pr. 8A",
    "updated": "2025-01-03 16:30:01.533",
    "comment": "Paštomatas stovi lauke netoli įėjimo į parduotuvę.",
    "latitude": "55.704788",
    "longitude": 21.141725,
    "postalCode": "91229",
    "countryCode": "LT"
  },
  {
    "id": 325,
    "name": "Maxima",
    "city": "Nida",
    "address": "Naglių g.29A",
    "updated": "21.00529",
    "comment": "2025-01-03 16:30:01.536",
    "latitude": "93123",
    "longitude": 55.3044,
    "postalCode": " Nida",
    "countryCode": "LT"
  },
  {
    "id": 326,
    "name": "Maxima",
    "city": "Ginduliai",
    "address": "Žalioji g. 36",
    "updated": "55.7310",
    "comment": "21.18650",
    "latitude": " Klaipėdos r.",
    "longitude": 91276,
    "postalCode": " Gindulių k.",
    "countryCode": "LT"
  },
  {
    "id": 327,
    "name": "IKI Draugystė",
    "city": "Klaipėda",
    "address": "Debreceno g.54",
    "updated": "2025-01-03 16:30:01.541",
    "comment": "",
    "latitude": "55.6827",
    "longitude": 21.1716,
    "postalCode": "94150",
    "countryCode": "LT"
  },
  {
    "id": 401,
    "name": "Akropolis",
    "city": "Šiauliai",
    "address": "Aido g. 8",
    "updated": "2025-01-03 16:30:01.544",
    "comment": "Paštomatas yra lauke",
    "latitude": "55.906864",
    "longitude": 23.260798,
    "postalCode": "78322",
    "countryCode": "LT"
  },
  {
    "id": 402,
    "name": "Maxima",
    "city": "Ginkūnai",
    "address": "Rasos g. 1A",
    "updated": "2025-01-03 16:30:01.546",
    "comment": "Paštomatas yra lauke",
    "latitude": "55.95333",
    "longitude": 23.35621,
    "postalCode": "81495",
    "countryCode": "LT"
  },
  {
    "id": 404,
    "name": "Saulės miestas",
    "city": "Šiauliai",
    "address": "Tilžės g. 109",
    "updated": "2025-01-03 16:30:01.549",
    "comment": "Paštomatas yra lauke",
    "latitude": "55.927655",
    "longitude": 23.306816,
    "postalCode": "77159",
    "countryCode": "LT"
  },
  {
    "id": 405,
    "name": "IKI Dainai",
    "city": "Šiauliai",
    "address": "Gardino g. 2",
    "updated": "2025-01-03 16:30:01.552",
    "comment": "Paštomatas yra lauke",
    "latitude": "55.914001",
    "longitude": 23.272493,
    "postalCode": "78230",
    "countryCode": "LT"
  },
  {
    "id": 406,
    "name": "Norfa",
    "city": "Šiauliai",
    "address": "M. Valančiaus g. 18",
    "updated": "2025-01-03 16:30:01.555",
    "comment": "Paštomatas yra prie įėjimo į prekybos centrą.",
    "latitude": "55.938775",
    "longitude": 23.305227,
    "postalCode": "76302",
    "countryCode": "LT"
  },
  {
    "id": 407,
    "name": "IKI Lyra",
    "city": "Šiauliai",
    "address": "Lyros g. 19A",
    "updated": "2025-01-03 16:30:01.558",
    "comment": "Paštomatas yra lauke prie prekybos centro sienos .",
    "latitude": "55.914902",
    "longitude": 23.262142,
    "postalCode": "78268",
    "countryCode": "LT"
  },
  {
    "id": 408,
    "name": "Tau",
    "city": "Šiauliai",
    "address": "Birutės g. 37",
    "updated": "2025-01-03 16:30:01.561",
    "comment": "",
    "latitude": 55.947706,
    "longitude": 23.297247,
    "postalCode": "76215",
    "countryCode": "LT"
  },
  {
    "id": 409,
    "name": "LIDL",
    "city": "Šiauliai",
    "address": "Pramonės g.  1A",
    "updated": "2025-01-03 16:30:01.564",
    "comment": "Paštomatas randasi lauke prie įvažiavimo į prekybos centro automobilių aikštelę.",
    "latitude": "55.920337",
    "longitude": 23.294595,
    "postalCode": "78137",
    "countryCode": "LT"
  },
  {
    "id": 410,
    "name": "LIDL",
    "city": "Šiauliai",
    "address": "Tilžės g. 217",
    "updated": "2025-01-03 16:30:01.567",
    "comment": "Paštomatas stovi lauke prie prekybos centro galinės sienos.",
    "latitude": "55.940273",
    "longitude": 23.325622,
    "postalCode": "76200",
    "countryCode": "LT"
  },
  {
    "id": 411,
    "name": "LIDL",
    "city": "Šiauliai",
    "address": "Tilžės g. 3",
    "updated": "2025-01-03 16:30:01.569",
    "comment": "Paštomatas stovi lauke matomas nuo prekybos centro automobilių stovėjimo aikštelės.",
    "latitude": "55.908533",
    "longitude": 23.262605,
    "postalCode": "78322",
    "countryCode": "LT"
  },
  {
    "id": 412,
    "name": "Norfa",
    "city": "Šiauliai",
    "address": "Gumbinės g. 145A",
    "updated": "2025-01-03 16:30:01.572",
    "comment": "Paštomatas stovi lauke prie prekybos centro šoninės sienos.",
    "latitude": "55.941521",
    "longitude": 23.282471,
    "postalCode": "76326",
    "countryCode": "LT"
  },
  {
    "id": 413,
    "name": "Kubas",
    "city": "Šiauliai",
    "address": "Draugystės pr. 2",
    "updated": "2025-01-03 16:30:01.574",
    "comment": "Paštomatas stovi lauke prie prekybos centro sienos.",
    "latitude": "55.92398",
    "longitude": 23.31566,
    "postalCode": "77147",
    "countryCode": "LT"
  },
  {
    "id": 414,
    "name": " Norfa",
    "city": "Šiauliai",
    "address": "Vilties g. 1",
    "updated": "23.25517",
    "comment": "2025-01-03 16:30:01.577",
    "latitude": "77209",
    "longitude": 55.91961,
    "postalCode": " Dainų k.",
    "countryCode": "LT"
  },
  {
    "id": 415,
    "name": "Maxima",
    "city": "Šiauliai",
    "address": "Vilniaus g. 3",
    "updated": "2025-01-03 16:30:01.579",
    "comment": "Paštomatas yra lauke prie PC Maxima",
    "latitude": "55.922907",
    "longitude": 23.349133,
    "postalCode": "76275",
    "countryCode": "LT"
  },
  {
    "id": 501,
    "name": "Rimi Panevėžys",
    "city": "Panevėžys",
    "address": "Klaipėdos g. 82",
    "updated": "2025-01-03 16:30:01.582",
    "comment": "Paštomatas yra lauke",
    "latitude": "55.728259",
    "longitude": 24.342377,
    "postalCode": "35195",
    "countryCode": "LT"
  },
  {
    "id": 502,
    "name": "Maxima XX",
    "city": "Panevėžys",
    "address": "Respublikos g. 71",
    "updated": "2025-01-03 16:30:01.584",
    "comment": "Paštomatas yra lauke",
    "latitude": "55.736981",
    "longitude": 24.356207,
    "postalCode": "35157",
    "countryCode": "LT"
  },
  {
    "id": 503,
    "name": "IKI Basanavičiaus",
    "city": "Panevėžys",
    "address": "Ukmergės g. 18",
    "updated": "2025-01-03 16:30:01.586",
    "comment": "Paštomatas yra lauke",
    "latitude": "55.727546",
    "longitude": 24.365775,
    "postalCode": "35201",
    "countryCode": "LT"
  },
  {
    "id": 504,
    "name": "PC Molas",
    "city": "Panevėžys",
    "address": "Klaipėdos g. 143A",
    "updated": "2025-01-03 16:30:01.589",
    "comment": "Paštomatas yra lauke",
    "latitude": "55.730017",
    "longitude": 24.309013,
    "postalCode": "37189",
    "countryCode": "LT"
  },
  {
    "id": 505,
    "name": "LIDL",
    "city": "Panevėžys",
    "address": "Smėlynės g. 112A",
    "updated": "2025-01-03 16:30:01.592",
    "comment": "Paštomatas yra lauke",
    "latitude": "55.744832",
    "longitude": 24.371174,
    "postalCode": "35113",
    "countryCode": "LT"
  },
  {
    "id": 506,
    "name": "Vasaris PC",
    "city": "Panevėžys",
    "address": "Aukštaičių g. 88",
    "updated": "2025-01-03 16:30:01.594",
    "comment": "",
    "latitude": 55.72578,
    "longitude": 24.384239,
    "postalCode": "36115",
    "countryCode": "LT"
  },
  {
    "id": 507,
    "name": "LIDL",
    "city": "Panevėžys",
    "address": "J.Basanavičiaus g. 67",
    "updated": "2025-01-03 16:30:01.596",
    "comment": "Paštomatas yra lauke. Matomas nuo prekybos centro automobilų aikštelės.",
    "latitude": "55.716557",
    "longitude": 24.372649,
    "postalCode": "36204",
    "countryCode": "LT"
  },
  {
    "id": 508,
    "name": "LIDL",
    "city": "Panevėžys",
    "address": "Kosmonautų g.14 ",
    "updated": "2025-01-03 16:30:01.598",
    "comment": "Paštomatas randasi lauke",
    "latitude": "55.731165",
    "longitude": 24.340913,
    "postalCode": "37355",
    "countryCode": "LT"
  },
  {
    "id": 509,
    "name": "Norfa",
    "city": "Panevėžys",
    "address": "Molainių g. 11",
    "updated": "2025-01-03 16:30:01.601",
    "comment": "Paštomatas stovi lauke prie prekybos centro šoninės sienos.",
    "latitude": "55.7218",
    "longitude": 24.33097,
    "postalCode": "37162",
    "countryCode": "LT"
  },
  {
    "id": 510,
    "name": "Norfa",
    "city": "Panevėžys",
    "address": "Vasario 16-osios g. 55",
    "updated": "2025-01-03 16:30:01.603",
    "comment": "Paštomatas stovi lauke prie prekybos centro šoninės sienos",
    "latitude": "55.73139",
    "longitude": 24.348249,
    "postalCode": "35187",
    "countryCode": "LT"
  },
  {
    "id": 511,
    "name": "Bičiulis",
    "city": "Panevėžys",
    "address": "Marijonų g.25",
    "updated": "2025-01-03 16:30:01.606",
    "comment": "Paštomatas yra prie prekybos centro Bičiulis įėjimo",
    "latitude": "55.7406",
    "longitude": 24.3588,
    "postalCode": "35129",
    "countryCode": "LT"
  },
  {
    "id": 512,
    "name": "Rimi Ragaudžiai",
    "city": "Panevėžys",
    "address": "Ragaudžių g.2",
    "updated": "2025-01-03 16:30:01.609",
    "comment": "Paštomatas yra prie prekybos centro Rimi",
    "latitude": "55.7172",
    "longitude": 24.3387,
    "postalCode": "36265",
    "countryCode": "LT"
  },
  {
    "id": 601,
    "name": "Maxima XXX",
    "city": "Marijampolė",
    "address": "V. Kudirkos g. 3",
    "updated": "2025-01-03 16:30:01.612",
    "comment": "Paštomatas yra lauke",
    "latitude": "54.559851",
    "longitude": 23.354595,
    "postalCode": "68176",
    "countryCode": "LT"
  },
  {
    "id": 603,
    "name": "Maxima X",
    "city": "Marijampolė",
    "address": "Sporto g. 16",
    "updated": "2025-01-03 16:30:01.615",
    "comment": "Paštomatas yra lauke",
    "latitude": "54.56739",
    "longitude": 23.365693,
    "postalCode": "68236",
    "countryCode": "LT"
  },
  {
    "id": 604,
    "name": "Maxima XX",
    "city": "Marijampolė",
    "address": "Bažnyčios g. 38",
    "updated": "2025-01-03 16:30:01.617",
    "comment": "Paštomatas yra lauke",
    "latitude": "54.556183",
    "longitude": 23.346373,
    "postalCode": "68309",
    "countryCode": "LT"
  },
  {
    "id": 605,
    "name": "Pašto skyrius",
    "city": "Kalvarija",
    "address": "Laisvės g. 1",
    "updated": "2025-01-03 16:30:01.62",
    "comment": "Paštomatas yra lauke prie Lietuvos pašto pastato šoninės sienos",
    "latitude": "54.414545",
    "longitude": 23.227662,
    "postalCode": "69206",
    "countryCode": "LT"
  },
  {
    "id": 606,
    "name": "Pašto skyrius",
    "city": "Kazlų Rūda",
    "address": "J. Basanavičiaus 6A",
    "updated": "2025-01-03 16:30:01.622",
    "comment": "Paštomatas yra lauke ",
    "latitude": "54.752663",
    "longitude": 23.49175,
    "postalCode": "69415",
    "countryCode": "LT"
  },
  {
    "id": 607,
    "name": "LIDL",
    "city": "Marijampolė",
    "address": "Palangos g. 22",
    "updated": "2025-01-03 16:30:01.625",
    "comment": "Paštomatas yra lauke",
    "latitude": "54.56724",
    "longitude": 23.348778,
    "postalCode": "68188",
    "countryCode": "LT"
  },
  {
    "id": 608,
    "name": "LIDL",
    "city": "Marijampolė",
    "address": "Žemaitės g. 22",
    "updated": "2025-01-03 16:30:01.627",
    "comment": "Paštomatas yra lauke",
    "latitude": "54.556405",
    "longitude": 23.355845,
    "postalCode": "68264",
    "countryCode": "LT"
  },
  {
    "id": 609,
    "name": "Maxima",
    "city": "Kazlų Rūda",
    "address": "M.Valančiaus g. 7",
    "updated": "2025-01-03 16:30:01.629",
    "comment": "Paštomatas stovi lauke prie prekybos centro šoninės sienos.",
    "latitude": "54.75163",
    "longitude": 23.49355,
    "postalCode": "69443",
    "countryCode": "LT"
  },
  {
    "id": 702,
    "name": "LIDL",
    "city": "Alytus",
    "address": "Jazminų g. 32A",
    "updated": "2025-01-03 16:30:01.632",
    "comment": "Paštomatas yra lauke",
    "latitude": "54.399311",
    "longitude": 24.023676,
    "postalCode": "63188",
    "countryCode": "LT"
  },
  {
    "id": 703,
    "name": "IKI Vidzgiris",
    "city": "Alytus",
    "address": "Jaunimo g. 24-1",
    "updated": "2025-01-03 16:30:01.634",
    "comment": "Paštomatas yra lauke",
    "latitude": "54.391281",
    "longitude": 24.021915,
    "postalCode": "63351",
    "countryCode": "LT"
  },
  {
    "id": 704,
    "name": "Norfa",
    "city": "Alytus",
    "address": "Topolių g. 1",
    "updated": "2025-01-03 16:30:01.638",
    "comment": "Paštomatas yra lauke",
    "latitude": "54.396882",
    "longitude": 24.028228,
    "postalCode": "63337",
    "countryCode": "LT"
  },
  {
    "id": 705,
    "name": "Rimi Alytus",
    "city": "Alytus",
    "address": "Ūdrijos g. 1",
    "updated": "2025-01-03 16:30:01.641",
    "comment": "Paštomatas stovi lauke. Prie prekybos centro fasadinės sienos.",
    "latitude": "54.40741",
    "longitude": 24.01689,
    "postalCode": "62411",
    "countryCode": "LT"
  },
  {
    "id": 706,
    "name": "Norfa",
    "city": "Alytus",
    "address": "Jurgiškių g. 2",
    "updated": "2025-01-03 16:30:01.645",
    "comment": "Paštomatas stovi lauke . Matomas iš Jurgiškių g. pusės.",
    "latitude": "54.39974",
    "longitude": 24.01337,
    "postalCode": "63131",
    "countryCode": "LT"
  },
  {
    "id": 707,
    "name": "Aibė",
    "city": "Simnas",
    "address": "Vytauto g.30",
    "updated": "2025-01-03 16:30:01.648",
    "comment": "Paštomatas yra prie parduotuvės šoninės sienos.",
    "latitude": "54.3816",
    "longitude": 23.6482,
    "postalCode": "64304",
    "countryCode": "LT"
  },
  {
    "id": 708,
    "name": "Santaikos",
    "city": "Alytus",
    "address": "Santaikos g. 30M",
    "updated": "2025-01-03 16:30:01.652",
    "comment": "Paštomatas prie prekybos centro",
    "latitude": "54.3882",
    "longitude": 24.0315,
    "postalCode": "62123",
    "countryCode": "LT"
  },
  {
    "id": 801,
    "name": "LIDL",
    "city": "Tauragė",
    "address": "Dariaus ir Girėno g. 48",
    "updated": "2025-01-03 16:30:01.658",
    "comment": "Paštomatas yra lauke ",
    "latitude": "55.256225",
    "longitude": 22.293902,
    "postalCode": "72236",
    "countryCode": "LT"
  },
  {
    "id": 802,
    "name": "Pašto skyrius",
    "city": "Tauragė",
    "address": "Dariaus ir Girėno g. 16 ",
    "updated": "2025-01-03 16:30:01.664",
    "comment": "Paštomatas yra lauke prie Lietuvos pašto pastato pagrindinio įėjimo.",
    "latitude": "55.252074",
    "longitude": 22.285278,
    "postalCode": "72256",
    "countryCode": "LT"
  },
  {
    "id": 803,
    "name": "Norfa",
    "city": "Tauragė",
    "address": "Šilalės g. 87C",
    "updated": "2025-01-03 16:30:01.667",
    "comment": "Paštomatas yra lauke",
    "latitude": "55.267707",
    "longitude": 22.287623,
    "postalCode": "72205",
    "countryCode": "LT"
  },
  {
    "id": 804,
    "name": "Maxima",
    "city": "Tauragė",
    "address": "Šlaito g. 1",
    "updated": "2025-01-03 16:30:01.67",
    "comment": "Paštomatas stovi lauke prie prekybos centro lauko sienos.",
    "latitude": "55.2487",
    "longitude": 22.27062,
    "postalCode": "72112",
    "countryCode": "LT"
  },
  {
    "id": 901,
    "name": "Maxima XX",
    "city": "Mažeikiai",
    "address": "Laisvės g. 56",
    "updated": "2025-01-03 16:30:01.673",
    "comment": "Paštomatas yra lauke prie parduotuvės.",
    "latitude": "56.317066",
    "longitude": 22.340237,
    "postalCode": "89223",
    "countryCode": "LT"
  },
  {
    "id": 902,
    "name": "LIDL",
    "city": "Mažeikiai",
    "address": "Daukšos g. 24A",
    "updated": "2025-01-03 16:30:01.675",
    "comment": "Paštomatas yra lauke",
    "latitude": "56.30445",
    "longitude": 22.34881,
    "postalCode": "89234",
    "countryCode": "LT"
  },
  {
    "id": 903,
    "name": "IKI Venta",
    "city": "Mažeikiai",
    "address": "Ventos g. 10B",
    "updated": "2025-01-03 16:30:01.678",
    "comment": "Paštomatas yra lauke prie prekybos centro šoninės sienos.",
    "latitude": "56.30887",
    "longitude": 22.323752,
    "postalCode": "89171",
    "countryCode": "LT"
  },
  {
    "id": 904,
    "name": "Norfa",
    "city": "Mažeikiai",
    "address": "Sedos g. 53",
    "updated": "2025-01-03 16:30:01.68",
    "comment": "Paštomatas stovi lauke prie įėjimo į prekybos centrą.",
    "latitude": "56.2995",
    "longitude": 22.34029,
    "postalCode": "89191",
    "countryCode": "LT"
  },
  {
    "id": 905,
    "name": "Grūstė",
    "city": "Viekšniai",
    "address": "Tilto g. 14",
    "updated": "2025-01-03 16:30:01.683",
    "comment": "Paštomatas stovi lauke",
    "latitude": "56.23286",
    "longitude": 22.515685,
    "postalCode": "89492",
    "countryCode": "LT"
  },
  {
    "id": 906,
    "name": "Grūstė-26",
    "city": "Mažeikiai",
    "address": "Mažeikių 100-mečio g. 2",
    "updated": "2025-01-03 16:30:01.686",
    "comment": "Paštomatas stovi lauke prie parduotuvės fasadinės sienos.",
    "latitude": "55.32442",
    "longitude": 22.33163,
    "postalCode": "89229",
    "countryCode": "LT"
  },
  {
    "id": 1001,
    "name": "Norfa",
    "city": "Jonava",
    "address": "Chemikų g. 2",
    "updated": "2025-01-03 16:30:01.689",
    "comment": "Paštomatas yra lauke",
    "latitude": "55.073169",
    "longitude": 24.258671,
    "postalCode": "55255",
    "countryCode": "LT"
  },
  {
    "id": 1002,
    "name": "Norfa",
    "city": "Rukla",
    "address": "Karaliaus Mindaugo g. 10",
    "updated": "2025-01-03 16:30:01.692",
    "comment": "Paštomatas yra lauke prie prekybos centro šoninės sienos.",
    "latitude": "55.052706",
    "longitude": 24.37743,
    "postalCode": "55285",
    "countryCode": "LT"
  },
  {
    "id": 1003,
    "name": "LIDL",
    "city": "Jonava",
    "address": "Žemaitės g. 3",
    "updated": "2025-01-03 16:30:01.694",
    "comment": "Paštomatas randasi lauke. Matomas nuo prekybos centro automobilių aikštelės.",
    "latitude": "55.081678",
    "longitude": 24.26948,
    "postalCode": "55134",
    "countryCode": "LT"
  },
  {
    "id": 1004,
    "name": "Rimi",
    "city": "Jonava",
    "address": "Vasario 16 - osios g. 4",
    "updated": "2025-01-03 16:30:01.697",
    "comment": "Pašomatas stovi lauke prie šoninės pastato sienos.",
    "latitude": "55.07319",
    "longitude": 24.27546,
    "postalCode": "55158",
    "countryCode": "LT"
  },
  {
    "id": 1005,
    "name": "Maxima",
    "city": "Jonava",
    "address": "Plento g. 3",
    "updated": "2025-01-03 16:30:01.699",
    "comment": "Paštomatas stovi lauke prie pastato sienos netoli įėjimo į prekybos centrą.",
    "latitude": "55.06586",
    "longitude": 24.28382,
    "postalCode": "55195",
    "countryCode": "LT"
  },
  {
    "id": 1101,
    "name": "LIDL",
    "city": "Utena",
    "address": "J. Basanavičiaus g. 121",
    "updated": "2025-01-03 16:30:01.702",
    "comment": "Paštomatas yra lauke",
    "latitude": "55.502207",
    "longitude": 25.617775,
    "postalCode": "28214",
    "countryCode": "LT"
  },
  {
    "id": 1102,
    "name": "Senukai",
    "city": "Utena",
    "address": "J. Basanavičiaus g. 52",
    "updated": "2025-01-03 16:30:01.704",
    "comment": "Paštomatas yra lauke",
    "latitude": "55.498009",
    "longitude": 25.596979,
    "postalCode": "28142",
    "countryCode": "LT"
  },
  {
    "id": 1103,
    "name": "Aukštakalnis",
    "city": "Utena",
    "address": "Taikos g. 2 ",
    "updated": "2025-01-03 16:30:01.707",
    "comment": "Paštomatas stovi lauke prie prekybos centro sienos.",
    "latitude": "55.51015",
    "longitude": 25.5852,
    "postalCode": "28153",
    "countryCode": "LT"
  },
  {
    "id": 1104,
    "name": " Rašė",
    "city": "Utena",
    "address": "Vaižganto g. 17",
    "updated": "2025-01-03 16:30:01.71",
    "comment": "Paštomatas stovi lauke prie prekybos centro šoninės sienos.",
    "latitude": "55.51106",
    "longitude": 25.60486,
    "postalCode": "28197",
    "countryCode": "LT"
  },
  {
    "id": 1105,
    "name": "Husqvarna",
    "city": "Utena",
    "address": "J.Basanavičiaus g.12",
    "updated": "2025-01-03 16:30:01.712",
    "comment": "Paštomatas yra prie Husqvarna parduotuvės",
    "latitude": "55.496",
    "longitude": 25.583671,
    "postalCode": "28140",
    "countryCode": "LT"
  },
  {
    "id": 1201,
    "name": "Maxima XX",
    "city": "Kėdainiai",
    "address": "J. Basanavičiaus g. 53",
    "updated": "2025-01-03 16:30:01.715",
    "comment": "Paštomatas yra lauke",
    "latitude": "55.287512",
    "longitude": 23.97441,
    "postalCode": "57283",
    "countryCode": "LT"
  },
  {
    "id": 1202,
    "name": "IKI Gegučių",
    "city": "Kėdainiai",
    "address": "Gegučių g. 13",
    "updated": "2025-01-03 16:30:01.718",
    "comment": "Paštomatas yra lauke prie prekybos centro pastato  šoninės sienos.",
    "latitude": "55.283164",
    "longitude": 23.962116,
    "postalCode": "57461",
    "countryCode": "LT"
  },
  {
    "id": 1203,
    "name": "LIDL",
    "city": "Kėdainiai",
    "address": "J.Basanavičiaus g. 87B",
    "updated": "2025-01-03 16:30:01.72",
    "comment": "Paštomatas stovi lauke. Matomas iš prekybos centro automobilių stovėjimo aikštelės.",
    "latitude": "55.278833",
    "longitude": 23.964724,
    "postalCode": "57357",
    "countryCode": "LT"
  },
  {
    "id": 1204,
    "name": "IKI",
    "city": "Kėdainiai",
    "address": "P. Lukšio g. 1A",
    "updated": "2025-01-03 16:30:01.723",
    "comment": "Paštomatas stovi lauke prie įėjimo į prekybos centrą.",
    "latitude": "55.29101",
    "longitude": 23.9845,
    "postalCode": "57198",
    "countryCode": "LT"
  },
  {
    "id": 1301,
    "name": "Rimi Telšiai",
    "city": "Telšiai",
    "address": "Plungės g. 4",
    "updated": "2025-01-03 16:30:01.725",
    "comment": "Paštomatas yra lauke. Prie prekybos centro šoninės sienos.",
    "latitude": "55.980372",
    "longitude": 22.235602,
    "postalCode": "87317",
    "countryCode": "LT"
  },
  {
    "id": 1302,
    "name": "LIDL",
    "city": "Telšiai",
    "address": "Luokės g. 74A",
    "updated": "2025-01-03 16:30:01.728",
    "comment": "Paštomatas randasi lauke. Prie prekybos centro automobilių stovėjimo aikštelės.",
    "latitude": "55.975572",
    "longitude": 22.266818,
    "postalCode": "87140",
    "countryCode": "LT"
  },
  {
    "id": 1303,
    "name": "Čia Market",
    "city": "Telšiai",
    "address": "Dariaus ir Girėno g. 11",
    "updated": "2025-01-03 16:30:01.731",
    "comment": "Paštomatas stovi lauke prie prekybos centro šoninės sienos.",
    "latitude": "55.97612",
    "longitude": 22.23256,
    "postalCode": "87352",
    "countryCode": "LT"
  },
  {
    "id": 1304,
    "name": "Norfa",
    "city": "Telšiai",
    "address": "Luokės g.91",
    "updated": "2025-01-03 16:30:01.733",
    "comment": "Paštomatas yra prie parduotuvės Norfa",
    "latitude": "55.9749",
    "longitude": 22.2673,
    "postalCode": "87174",
    "countryCode": "LT"
  },
  {
    "id": 1401,
    "name": "Maxima XX",
    "city": "Vilkaviškis",
    "address": "J. Basanavičiaus a. 1",
    "updated": "2025-01-03 16:30:01.736",
    "comment": "Paštomatas yra lauke",
    "latitude": "54.649591",
    "longitude": 23.036479,
    "postalCode": "70101",
    "countryCode": "LT"
  },
  {
    "id": 1402,
    "name": "Norfa",
    "city": "Kybartai",
    "address": "Vištyčio g. 40",
    "updated": "2025-01-03 16:30:01.739",
    "comment": "Paštomatas yra lauke",
    "latitude": "54.631154",
    "longitude": 22.75541,
    "postalCode": "70428",
    "countryCode": "LT"
  },
  {
    "id": 1403,
    "name": "LIDL",
    "city": "Vilkaviškis",
    "address": "Vytauto g. 77",
    "updated": "2025-01-03 16:30:01.742",
    "comment": "Paštomatas yra lauke prie prekybos centro vėžimelių saugojimo vietos.",
    "latitude": "54.646894",
    "longitude": 23.03846,
    "postalCode": "70139",
    "countryCode": "LT"
  },
  {
    "id": 1404,
    "name": "Maisto ir pramonės prekės",
    "city": "Pilviškiai",
    "address": "Vasario 16-osios g. 16",
    "updated": "2025-01-03 16:30:01.745",
    "comment": "Paštomatas stovi lauke prie įėjimo į prekybos centrą.",
    "latitude": "54.71795",
    "longitude": 23.22147,
    "postalCode": "70485",
    "countryCode": "LT"
  },
  {
    "id": 1501,
    "name": "Maxima X",
    "city": "Visaginas",
    "address": "Taikos g. 66",
    "updated": "2025-01-03 16:30:01.748",
    "comment": "Paštomatas yra lauke",
    "latitude": "55.594613",
    "longitude": 26.451886,
    "postalCode": "31204",
    "countryCode": "LT"
  },
  {
    "id": 1502,
    "name": "Pašto skyrius",
    "city": "Švenčionys",
    "address": "Vilniaus g. 18",
    "updated": "2025-01-03 16:30:01.75",
    "comment": "Paštomatas yra lauke",
    "latitude": "55.131661",
    "longitude": 26.155626,
    "postalCode": "18123",
    "countryCode": "LT"
  },
  {
    "id": 1503,
    "name": "Aibė",
    "city": "Mickūnai",
    "address": "Vilniaus g. 17A",
    "updated": "2025-01-03 16:30:01.753",
    "comment": "Paštomatas yra lauke",
    "latitude": "54.702425",
    "longitude": 25.520959,
    "postalCode": "13116",
    "countryCode": "LT"
  },
  {
    "id": 1504,
    "name": "Norfa",
    "city": "Švenčionėliai",
    "address": "Žemutinės g. 26",
    "updated": "2025-01-03 16:30:01.756",
    "comment": "Paštomatas yra lauke",
    "latitude": "55.169467",
    "longitude": 26.003813,
    "postalCode": "18212",
    "countryCode": "LT"
  },
  {
    "id": 1505,
    "name": "LIDL",
    "city": "Visaginas",
    "address": "Veteranų g. 9",
    "updated": "2025-01-03 16:30:01.759",
    "comment": "Paštomatas yra lauke ",
    "latitude": "55.598944",
    "longitude": 26.434635,
    "postalCode": "31114",
    "countryCode": "LT"
  },
  {
    "id": 1506,
    "name": "Norfa",
    "city": "Pabradė",
    "address": "Molėtų g. 4",
    "updated": "2025-01-03 16:30:01.761",
    "comment": "Paštomatas yra lauke . Prie prekybos centro pastato sienos.",
    "latitude": "54.979634",
    "longitude": 25.755995,
    "postalCode": "18169",
    "countryCode": "LT"
  },
  {
    "id": 1507,
    "name": "Lakaja",
    "city": "Švenčionys",
    "address": "Vilniaus g. 8",
    "updated": "2025-01-03 16:30:01.764",
    "comment": "Paštomatas yra prie parduotuvės Lakaja įėjimo.",
    "latitude": "55.13351",
    "longitude": 26.158304,
    "postalCode": "18123",
    "countryCode": "LT"
  },
  {
    "id": 1508,
    "name": "IKI",
    "city": "Visaginas",
    "address": "Parko g. 7B-6",
    "updated": "2025-01-03 16:30:01.767",
    "comment": "Paštomatas stovi lauke prie įėjimo į prekybos centrą. Matomas iš Parko g. pusės",
    "latitude": "55.59774",
    "longitude": 26.42422,
    "postalCode": "31131",
    "countryCode": "LT"
  },
  {
    "id": 1509,
    "name": "Maxima",
    "city": "Švenčionėliai",
    "address": "Priestočio g.6",
    "updated": "2025-01-03 16:30:01.77",
    "comment": "Paštomatas stovi lauke prie pastato sienos.",
    "latitude": "55.1640851",
    "longitude": 25.9955981,
    "postalCode": "18209",
    "countryCode": "LT"
  },
  {
    "id": 1601,
    "name": "Maxima XX",
    "city": "Ukmergė",
    "address": "Žiedo g. 1",
    "updated": "2025-01-03 16:30:01.774",
    "comment": "Paštomatas yra lauke",
    "latitude": "55.242714",
    "longitude": 24.744526,
    "postalCode": "20118",
    "countryCode": "LT"
  },
  {
    "id": 1602,
    "name": "LIDL",
    "city": "Ukmergė",
    "address": "Vytauto g. 111A",
    "updated": "2025-01-03 16:30:01.777",
    "comment": "Paštomatas yra lauke",
    "latitude": "55.259474",
    "longitude": 24.791811,
    "postalCode": "20184",
    "countryCode": "LT"
  },
  {
    "id": 1603,
    "name": "IKI",
    "city": "Ukmergė",
    "address": "Vilniaus g. 62",
    "updated": "2025-01-03 16:30:01.78",
    "comment": "Paštomatas stovi lauke",
    "latitude": "55.244116",
    "longitude": 24.773193,
    "postalCode": "20159",
    "countryCode": "LT"
  },
  {
    "id": 1604,
    "name": "Papartis",
    "city": "Ukmergė",
    "address": "Vasario 16-osios g. 30",
    "updated": "2025-01-03 16:30:01.782",
    "comment": "Paštomatas stovi lauke prie įėjimo į parduotuvę.",
    "latitude": "55.25013",
    "longitude": 24.75892,
    "postalCode": "20130",
    "countryCode": "LT"
  },
  {
    "id": 1701,
    "name": "Maxima XX",
    "city": "Plungė",
    "address": "J.Tumo-Vaižganto g. 81",
    "updated": "2025-01-03 16:30:01.784",
    "comment": "Paštomatas yra lauke",
    "latitude": "55.904136",
    "longitude": 21.832345,
    "postalCode": "90160",
    "countryCode": "LT"
  },
  {
    "id": 1702,
    "name": "IKI Plungė-Turgus",
    "city": "Plungė",
    "address": "Laisvės g. 5",
    "updated": "2025-01-03 16:30:01.787",
    "comment": "Paštomatas yra lauke",
    "latitude": "55.909374",
    "longitude": 21.856726,
    "postalCode": "90156",
    "countryCode": "LT"
  },
  {
    "id": 1703,
    "name": "Pašto skyrius",
    "city": "Rietavas",
    "address": "Plungės g. 21",
    "updated": "2025-01-03 16:30:01.791",
    "comment": "Paštomatas yra lauke ",
    "latitude": "55.724639",
    "longitude": 21.930742,
    "postalCode": "90313",
    "countryCode": "LT"
  },
  {
    "id": 1704,
    "name": "LIDL",
    "city": "Plungė",
    "address": "J.Tumo-Vaižganto g. 110",
    "updated": "2025-01-03 16:30:01.794",
    "comment": "Paštomatas stovi lauke",
    "latitude": "55.902106",
    "longitude": 21.827144,
    "postalCode": "90142",
    "countryCode": "LT"
  },
  {
    "id": 1705,
    "name": "Norfa",
    "city": "Plungė",
    "address": "Kalniškių g.18",
    "updated": "2025-01-03 16:30:01.797",
    "comment": "Paštomatas stovi lauke prie įėjimo į prekybos centrą.",
    "latitude": "55.905118",
    "longitude": 21.844002,
    "postalCode": "90158",
    "countryCode": "LT"
  },
  {
    "id": 1706,
    "name": "Norfa",
    "city": "Plungė",
    "address": "Dariaus ir Girėno g. 54",
    "updated": "2025-01-03 16:30:01.8",
    "comment": "Paštomatas stovi lauke prie įėjimo į prekybos centrą.",
    "latitude": "55.921934",
    "longitude": 21.862502,
    "postalCode": "90169",
    "countryCode": "LT"
  },
  {
    "id": 1801,
    "name": "Maxima X",
    "city": "Kretinga",
    "address": "Žemaitės al. 29",
    "updated": "2025-01-03 16:30:01.802",
    "comment": "Paštomatas yra lauke",
    "latitude": "55.893905",
    "longitude": 21.261978,
    "postalCode": "97106",
    "countryCode": "LT"
  },
  {
    "id": 1802,
    "name": "Pašto skyrius",
    "city": "Skuodas",
    "address": "Gedimino g. 6",
    "updated": "2025-01-03 16:30:01.807",
    "comment": "Paštomatas yra lauke",
    "latitude": "56.270158",
    "longitude": 21.529217,
    "postalCode": "98116",
    "countryCode": "LT"
  },
  {
    "id": 1804,
    "name": "Rimi Kretinga",
    "city": "Kretinga",
    "address": "Šventosios g. 27B",
    "updated": "2025-01-03 16:30:01.81",
    "comment": "Paštomatas stovi lauke šalia prekybos centro automobilių stovėjimo aištelės.",
    "latitude": "55.89527",
    "longitude": 21.23544,
    "postalCode": "97124",
    "countryCode": "LT"
  },
  {
    "id": 1805,
    "name": "Ūkinės prekės",
    "city": "Salantai",
    "address": "A.Salio g. 3",
    "updated": "2025-01-03 16:30:01.812",
    "comment": "Paštomatas stovi lauke prie autobusų stoties šoninės sienos.",
    "latitude": "56.06056",
    "longitude": 21.57133,
    "postalCode": "97322",
    "countryCode": "LT"
  },
  {
    "id": 1806,
    "name": "Aibė",
    "city": "Kretinga",
    "address": "Minijos g.1",
    "updated": "2025-01-03 16:30:01.815",
    "comment": "Paštomatas prie Aibė parduotuvės",
    "latitude": "55.8836",
    "longitude": 21.2585,
    "postalCode": "97135",
    "countryCode": "LT"
  },
  {
    "id": 1901,
    "name": "Lidl",
    "city": "Radviliškis",
    "address": "Gedimino g. 35",
    "updated": "2025-01-03 16:30:01.817",
    "comment": "Paštomatas stovi lauke prie prekybos centro šoninės sienos.",
    "latitude": "55.81355",
    "longitude": 23.54675,
    "postalCode": "82168",
    "countryCode": "LT"
  },
  {
    "id": 1902,
    "name": "Gausa PC",
    "city": " Baisogala",
    "address": "Maironio g. 44",
    "updated": "2025-01-03 16:30:01.819",
    "comment": "",
    "latitude": 55.63881,
    "longitude": 23.723466,
    "postalCode": "82320",
    "countryCode": "LT"
  },
  {
    "id": 1903,
    "name": "Norfa",
    "city": "Šeduva",
    "address": "Panevėžio g. 33",
    "updated": "2025-01-03 16:30:01.822",
    "comment": "Paštomatas yra lauke prie prekybos centro šoninės sienos.",
    "latitude": "55.75642",
    "longitude": 23.762576,
    "postalCode": "82224",
    "countryCode": "LT"
  },
  {
    "id": 1904,
    "name": "Norfa",
    "city": "Radviliškis",
    "address": "Taikos g. 9",
    "updated": "2025-01-03 16:30:01.825",
    "comment": "Paštomatas yra lauke. Prie prekybos centro pastato šoninės sienos. Matomas iš Taikos g. pusės.",
    "latitude": "55.800486",
    "longitude": 23.562122,
    "postalCode": "82128",
    "countryCode": "LT"
  },
  {
    "id": 1905,
    "name": "Žirnis Aibė",
    "city": "Radviliškis",
    "address": "Turgaus g. 12",
    "updated": "2025-01-03 16:30:01.827",
    "comment": "Paštomatas stovi lauke prie parduotuvės šoninės sienos. Matomas iš Turgaus g. pusės.",
    "latitude": "55.80387",
    "longitude": 23.55021,
    "postalCode": "82179",
    "countryCode": "LT"
  },
  {
    "id": 2001,
    "name": "Lietuvininkų",
    "city": "Šilutė",
    "address": "Lietuvininkų g. 39",
    "updated": "2025-01-03 16:30:01.83",
    "comment": "Paštomatas yra lauke prie \"IKI\" parduotuvės.",
    "latitude": "55.34332",
    "longitude": 21.472376,
    "postalCode": "99134",
    "countryCode": "LT"
  },
  {
    "id": 2002,
    "name": "LIDL",
    "city": "Šilutė",
    "address": "Tilžės g. 22",
    "updated": "2025-01-03 16:30:01.832",
    "comment": "Paštomatas yra lauke",
    "latitude": "55.343747",
    "longitude": 21.484101,
    "postalCode": "99169",
    "countryCode": "LT"
  },
  {
    "id": 2003,
    "name": "Čia Market",
    "city": "Švėkšna",
    "address": "Liepų a. 9",
    "updated": "2025-01-03 16:30:01.834",
    "comment": "Paštomatas stovi lauke prie įėjimo į prekybos centrą.",
    "latitude": "55.51719",
    "longitude": 21.62198,
    "postalCode": "99383",
    "countryCode": "LT"
  },
  {
    "id": 2004,
    "name": "IKI",
    "city": "Šilutė",
    "address": "Dariaus ir Girėno g. 11",
    "updated": "2025-01-03 16:30:01.837",
    "comment": "Paštomatas stovi lauke prie prekybos centro sienos.",
    "latitude": "55.35063",
    "longitude": 21.46205,
    "postalCode": "99129",
    "countryCode": "LT"
  },
  {
    "id": 2101,
    "name": "Maxima XX",
    "city": "Elektrėnai",
    "address": "Rungos g. 4",
    "updated": "2025-01-03 16:30:01.84",
    "comment": "Paštomatas yra lauke",
    "latitude": "54.784907",
    "longitude": 24.658285,
    "postalCode": "26109",
    "countryCode": "LT"
  },
  {
    "id": 2102,
    "name": "LIDL",
    "city": "Elektrėnai",
    "address": "Sabališkių g. 1D",
    "updated": "2025-01-03 16:30:01.842",
    "comment": "Paštomatas yra lauke",
    "latitude": "54.788737",
    "longitude": 24.674972,
    "postalCode": "26141",
    "countryCode": "LT"
  },
  {
    "id": 2103,
    "name": "Pašto skyrius",
    "city": "Vievis",
    "address": "Vilniaus g. 55A",
    "updated": "2025-01-03 16:30:01.844",
    "comment": "Paštomatas yra lauke prie Lietuvos pašto pastato  pagrindinio įėjimo",
    "latitude": "54.770874",
    "longitude": 24.819004,
    "postalCode": "21376",
    "countryCode": "LT"
  },
  {
    "id": 2104,
    "name": "Maxima",
    "city": "Širvintos",
    "address": "I.Šeiniaus g. 19",
    "updated": "2025-01-03 16:30:01.847",
    "comment": "Paštomatas stovi lauke prie prekybos centro šoninės sienos.",
    "latitude": "55.038202",
    "longitude": 24.953996,
    "postalCode": "19125",
    "countryCode": "LT"
  },
  {
    "id": 2105,
    "name": "Pašto skyrius",
    "city": "Elektrėnai",
    "address": "Trakų g. 4",
    "updated": "2025-01-03 16:30:01.849",
    "comment": "Paštomatas stovi lauke ",
    "latitude": "54.786224",
    "longitude": 24.67144,
    "postalCode": "26118",
    "countryCode": "LT"
  },
  {
    "id": 2106,
    "name": "Norfa",
    "city": "Širvintos",
    "address": "Zibalų g. 11",
    "updated": "2025-01-03 16:30:01.852",
    "comment": "Paštomatas stovi lauke prie prekybos centro šoninės sienos.",
    "latitude": "55.046307",
    "longitude": 24.943581,
    "postalCode": "19110",
    "countryCode": "LT"
  },
  {
    "id": 2201,
    "name": "Maxima X",
    "city": "Palanga",
    "address": "Plytų g. 9a",
    "updated": "2025-01-03 16:30:01.854",
    "comment": "Paštomatas yra lauke",
    "latitude": "55.915588",
    "longitude": 21.070398,
    "postalCode": "00129",
    "countryCode": "LT"
  },
  {
    "id": 2202,
    "name": "LIDL",
    "city": "Palanga",
    "address": "Klaipėdos pl. 59",
    "updated": "2025-01-03 16:30:01.857",
    "comment": "Paštomatas yra lauke matomas nuo prekybos centro automobilių stovėjimo aikštelės.",
    "latitude": "55.919201",
    "longitude": 21.076974,
    "postalCode": "00230",
    "countryCode": "LT"
  },
  {
    "id": 2203,
    "name": "Maxima",
    "city": "Palanga",
    "address": "Klaipėdos pl. 42",
    "updated": "2025-01-03 16:30:01.859",
    "comment": "Paštomatas stovi lauke prie prekybos centro šoninės sienos. Matomas nuo Vėžlių g. pusės.",
    "latitude": "55.91284",
    "longitude": 21.07774,
    "postalCode": "00129",
    "countryCode": "LT"
  },
  {
    "id": 2301,
    "name": "Lidl",
    "city": "Rokiškis",
    "address": "Respublikos g. 113",
    "updated": "2025-01-03 16:30:01.862",
    "comment": "Paštomatas yra lauke",
    "latitude": "55.953287",
    "longitude": 25.591831,
    "postalCode": "42150",
    "countryCode": "LT"
  },
  {
    "id": 2302,
    "name": "IKI",
    "city": "Rokiškis",
    "address": "Panevėžio g. 16",
    "updated": "2025-01-03 16:30:01.864",
    "comment": "Paštomatas stovi lauke",
    "latitude": "55.946219",
    "longitude": 25.585032,
    "postalCode": "42162",
    "countryCode": "LT"
  },
  {
    "id": 2401,
    "name": "Maxima XX",
    "city": "Naujoji Akmenė",
    "address": "V. Kudirkos g. 18",
    "updated": "2025-01-03 16:30:01.866",
    "comment": "Paštomatas yra lauke prie parduotuvės.",
    "latitude": "56.31731",
    "longitude": 22.885101,
    "postalCode": "85171",
    "countryCode": "LT"
  },
  {
    "id": 2402,
    "name": "Pašto skyrius",
    "city": "Akmenė",
    "address": "K.Kasakausko g. 7",
    "updated": "2025-01-03 16:30:01.868",
    "comment": "Paštomatas yra lauke ",
    "latitude": "56.245313",
    "longitude": 22.749378,
    "postalCode": "85367",
    "countryCode": "LT"
  },
  {
    "id": 2403,
    "name": "Norfa",
    "city": "Venta",
    "address": "Plento g. 2A",
    "updated": "2025-01-03 16:30:01.871",
    "comment": "Paštomatas yra lauke prie prekybos centro pastato sienos.",
    "latitude": "56.193364",
    "longitude": 22.679285,
    "postalCode": "85310",
    "countryCode": "LT"
  },
  {
    "id": 2501,
    "name": "Aidas PC",
    "city": "Druskininkai",
    "address": "M. K. Čiurlionio g. 50",
    "updated": "2025-01-03 16:30:01.873",
    "comment": "",
    "latitude": 54.015626,
    "longitude": 23.978366,
    "postalCode": "66142",
    "countryCode": "LT"
  },
  {
    "id": 2502,
    "name": "Malonė PC",
    "city": "Druskininkai",
    "address": "M.K Čiurlionio g. 107",
    "updated": "2025-01-03 16:30:01.876",
    "comment": "",
    "latitude": 54.011442,
    "longitude": 23.990306,
    "postalCode": "66161",
    "countryCode": "LT"
  },
  {
    "id": 2503,
    "name": "Norfa",
    "city": "Druskininkai",
    "address": "Leipalingio g. 1",
    "updated": "2025-01-03 16:30:01.879",
    "comment": "Paštomatas stovi lauke prie prekybos centro šoninės sienos.",
    "latitude": "54.028789",
    "longitude": 23.987302,
    "postalCode": "66371",
    "countryCode": "LT"
  },
  {
    "id": 2601,
    "name": "Eoltas",
    "city": "Raseiniai",
    "address": "Žemaičių g. 2",
    "updated": "2025-01-03 16:30:01.881",
    "comment": "Paštomatas yra lauke. Matomas iš Žemaičių g.  ir Maironio g. pusės",
    "latitude": "55.38872",
    "longitude": 23.12812,
    "postalCode": "60119",
    "countryCode": "LT"
  },
  {
    "id": 2602,
    "name": "Maxima",
    "city": "Ariogala",
    "address": "Taurupio g. 15A",
    "updated": "2025-01-03 16:30:01.883",
    "comment": "Paštomatas stovi lauke. Matomas iš Taurupio g.",
    "latitude": "55.26841",
    "longitude": 23.47055,
    "postalCode": "60251",
    "countryCode": "LT"
  },
  {
    "id": 2603,
    "name": "Vigosa",
    "city": "Raseiniai",
    "address": "Jaunimo g. 14",
    "updated": "2025-01-03 16:30:01.886",
    "comment": "Paštomatas stovi lauke. Matomas iš Jaunimo g.",
    "latitude": "55.38388",
    "longitude": 23.11784,
    "postalCode": "60128",
    "countryCode": "LT"
  },
  {
    "id": 2701,
    "name": "Maxima X",
    "city": "Biržai",
    "address": "Vabalninko g. 8a",
    "updated": "2025-01-03 16:30:01.889",
    "comment": "Paštomatas yra lauke",
    "latitude": "56.20048",
    "longitude": 24.738303,
    "postalCode": "41132",
    "countryCode": "LT"
  },
  {
    "id": 2702,
    "name": "IKI",
    "city": "Biržai",
    "address": "Vytauto g. 27",
    "updated": "2025-01-03 16:30:01.891",
    "comment": "Paštomatas yra lauke ",
    "latitude": "56.201256",
    "longitude": 24.756911,
    "postalCode": "41172",
    "countryCode": "LT"
  },
  {
    "id": 2801,
    "name": "Maxima XX",
    "city": "Jurbarkas",
    "address": "Algirdo g. 1A",
    "updated": "2025-01-03 16:30:01.894",
    "comment": "Paštomatas yra lauke",
    "latitude": "55.085645",
    "longitude": 22.769744,
    "postalCode": "74133",
    "countryCode": "LT"
  },
  {
    "id": 2802,
    "name": "IKI Vilkija",
    "city": "Vilkija",
    "address": "Čekiškės g. 98",
    "updated": "2025-01-03 16:30:01.897",
    "comment": "Paštomatas yra lauke prie parduotuvės šoninės sienos",
    "latitude": "55.043802",
    "longitude": 23.582761,
    "postalCode": "54221",
    "countryCode": "LT"
  },
  {
    "id": 2803,
    "name": "IKI",
    "city": "Jurbarkas",
    "address": "Dariaus ir Girėno g. 25",
    "updated": "2025-01-03 16:30:01.9",
    "comment": "Paštomatas stovi lauke prie prekybos centro šoninės sienos. Matomas nuo P.Cvirkos g. pusės",
    "latitude": "55.077511",
    "longitude": 22.765341,
    "postalCode": "74127",
    "countryCode": "LT"
  },
  {
    "id": 2901,
    "name": "Norfa",
    "city": "Kelmė",
    "address": "S. Šilingo g. 5",
    "updated": "2025-01-03 16:30:01.904",
    "comment": "Paštomatas yra lauke",
    "latitude": "55.631886",
    "longitude": 22.928743,
    "postalCode": "86144",
    "countryCode": "LT"
  },
  {
    "id": 2902,
    "name": "Senasis Šilas ",
    "city": "Kelmė",
    "address": "Kęstučio g. 1D",
    "updated": "2025-01-03 16:30:01.906",
    "comment": "Paštomatas stovi prie parduotuvės lauko sienos. Matomas iš Kęstučio g. pusės",
    "latitude": "55.634644",
    "longitude": 22.94564,
    "postalCode": "86139",
    "countryCode": "LT"
  },
  {
    "id": 2903,
    "name": "Aibė",
    "city": "Tytuvėnai",
    "address": "J. Basanavičiaus g. 1 ",
    "updated": "2025-01-03 16:30:01.909",
    "comment": "Paštomatas stovi lauke. Prie parduotuvės šoninės sienos",
    "latitude": "55.596836062",
    "longitude": 23.197084179,
    "postalCode": "86488",
    "countryCode": "LT"
  },
  {
    "id": 3001,
    "name": "Norfa",
    "city": "Anykščiai",
    "address": "Žiburio g. 12",
    "updated": "2025-01-03 16:30:01.911",
    "comment": "Paštomatas yra lauke",
    "latitude": "55.524932",
    "longitude": 25.118651,
    "postalCode": "29160",
    "countryCode": "LT"
  },
  {
    "id": 3002,
    "name": "Norfa",
    "city": "Anykščiai",
    "address": "Vilniaus g. 22",
    "updated": "2025-01-03 16:30:01.913",
    "comment": "Paštomatas stovi lauke prie įėjimo į prekybos centrą.",
    "latitude": "55.52242",
    "longitude": 25.09834,
    "postalCode": "29145",
    "countryCode": "LT"
  },
  {
    "id": 3003,
    "name": "KOOPS",
    "city": "Svėdasai",
    "address": "J.Tumo-Vaižganto g.18A",
    "updated": "2025-01-03 16:30:01.916",
    "comment": "Paštomatas yra prie įėjimo į ūkinių prekių parduotuvę.",
    "latitude": "55.6821664",
    "longitude": 25.3658199,
    "postalCode": "29351",
    "countryCode": "LT"
  },
  {
    "id": 3101,
    "name": "Maxima X",
    "city": "Joniškis",
    "address": "Upytės g. 19",
    "updated": "2025-01-03 16:30:01.918",
    "comment": "Paštomatas yra lauke",
    "latitude": "56.239922",
    "longitude": 23.619393,
    "postalCode": "84132",
    "countryCode": "LT"
  },
  {
    "id": 3102,
    "name": "Elimart",
    "city": "Joniškis",
    "address": "V.Kudirkos g. 87",
    "updated": "2025-01-03 16:30:01.921",
    "comment": "Paštomatas stovi lauke prie įėjimo į prekybos centrą.",
    "latitude": "56.23142",
    "longitude": 23.61199,
    "postalCode": "84174",
    "countryCode": "LT"
  },
  {
    "id": 3103,
    "name": "Žirnis Aibė",
    "city": "Žagarė",
    "address": "Miesto a. 8",
    "updated": "2025-01-03 16:30:01.923",
    "comment": "Paštomatas stovi lauke",
    "latitude": "56.359586",
    "longitude": 23.255625,
    "postalCode": "84322",
    "countryCode": "LT"
  },
  {
    "id": 3201,
    "name": "Maxima X",
    "city": "Prienai",
    "address": "Kauno g. 34",
    "updated": "2025-01-03 16:30:01.926",
    "comment": "Paštomatas yra lauke",
    "latitude": "54.645911",
    "longitude": 23.948606,
    "postalCode": "59147",
    "countryCode": "LT"
  },
  {
    "id": 3202,
    "name": "IKI",
    "city": "Birštonas",
    "address": "S. Dariaus ir S. Girėno g. 24",
    "updated": "2025-01-03 16:30:01.929",
    "comment": "Paštomatas stovi lauke prie prekybos centro šoninės sienos. Matomas iš S. Dariaus ir S. Girėno ir Vaižganto g. pusių.",
    "latitude": "54.605394",
    "longitude": 24.028887,
    "postalCode": "59212",
    "countryCode": "LT"
  },
  {
    "id": 3203,
    "name": "DNC maisto prekės",
    "city": "Prienai",
    "address": "J.Basanavičiaus g. 15",
    "updated": "2025-01-03 16:30:01.932",
    "comment": "Paštomatas stovi lauke prie pastato sienos.",
    "latitude": "54.63802",
    "longitude": 23.9452,
    "postalCode": "59151",
    "countryCode": "LT"
  },
  {
    "id": 3301,
    "name": "Maxima X",
    "city": "Šakiai",
    "address": "V. Kudirkos g. 66",
    "updated": "2025-01-03 16:30:01.936",
    "comment": "Paštomatas yra lauke",
    "latitude": "54.954394",
    "longitude": 23.039596,
    "postalCode": "71125",
    "countryCode": "LT"
  },
  {
    "id": 3302,
    "name": "Norfa",
    "city": "Šakiai",
    "address": "Šaulių g. 49",
    "updated": "2025-01-03 16:30:01.94",
    "comment": "Paštomatas stovi lauke. Matomas iš Šaulių g. pusės",
    "latitude": "54.96054",
    "longitude": 23.0315,
    "postalCode": "71117",
    "countryCode": "LT"
  },
  {
    "id": 3401,
    "name": "Maxima X",
    "city": "Varėna",
    "address": "Savanorių g. 5",
    "updated": "2025-01-03 16:30:01.942",
    "comment": "Paštomatas yra lauke",
    "latitude": "54.210461",
    "longitude": 24.577097,
    "postalCode": "65186",
    "countryCode": "LT"
  },
  {
    "id": 3402,
    "name": "IKI Varėna",
    "city": "Varėna",
    "address": "Vytauto g. 18",
    "updated": "2025-01-03 16:30:01.945",
    "comment": "Paštomatas yra lauke ",
    "latitude": "54.211633",
    "longitude": 24.569602,
    "postalCode": "65184",
    "countryCode": "LT"
  },
  {
    "id": 3501,
    "name": "Maxima X",
    "city": "Pasvalys",
    "address": "Vilniaus g. 48",
    "updated": "2025-01-03 16:30:01.948",
    "comment": "Paštomatas yra lauke",
    "latitude": "56.056966",
    "longitude": 24.406857,
    "postalCode": "39177",
    "countryCode": "LT"
  },
  {
    "id": 3601,
    "name": "Maxima X",
    "city": "Zarasai",
    "address": "D. Bukonto g. 7",
    "updated": "2025-01-03 16:30:01.951",
    "comment": "Paštomatas yra lauke",
    "latitude": "55.729382",
    "longitude": 26.244192,
    "postalCode": "32132",
    "countryCode": "LT"
  },
  {
    "id": 3701,
    "name": "Pašto skyrius",
    "city": "Pakruojis",
    "address": "Vytauto Didžiojo g. 17",
    "updated": "2025-01-03 16:30:01.953",
    "comment": "Paštomatas yra lauke prie Lietuvos pašto pastato šoninės sienos",
    "latitude": "55.977647",
    "longitude": 23.845942,
    "postalCode": "83155",
    "countryCode": "LT"
  },
  {
    "id": 3702,
    "name": "Pašto skyrius",
    "city": "Linkuva",
    "address": "Vienybės a. 7",
    "updated": "2025-01-03 16:30:01.956",
    "comment": "Paštomatas stovi lauke prie įėjimo į pašto skyrių.",
    "latitude": "56.08522",
    "longitude": 23.97231,
    "postalCode": "83443",
    "countryCode": "LT"
  },
  {
    "id": 3801,
    "name": "Maxima XX",
    "city": "Ignalina",
    "address": "Taikos g. 11",
    "updated": "2025-01-03 16:30:01.958",
    "comment": "Paštomatas yra lauke",
    "latitude": "55.343368",
    "longitude": 26.170785,
    "postalCode": "30125",
    "countryCode": "LT"
  },
  {
    "id": 3802,
    "name": "Pašto skyrius",
    "city": "Ignalina",
    "address": "Laisvės g. 64",
    "updated": "2025-01-03 16:30:01.961",
    "comment": "Paštomatas stovi lauke ",
    "latitude": "55.342508",
    "longitude": 26.164516,
    "postalCode": "30115",
    "countryCode": "LT"
  },
  {
    "id": 3901,
    "name": "Viešoji biblioteka",
    "city": "Lazdijai",
    "address": "Seinų g. 1",
    "updated": "2025-01-03 16:30:01.964",
    "comment": "Paštomatas yra lauke",
    "latitude": "54.233826",
    "longitude": 23.516353,
    "postalCode": "67113",
    "countryCode": "LT"
  },
  {
    "id": 3902,
    "name": "Senukai",
    "city": "Lazdijai",
    "address": "Sodų g. 12",
    "updated": "2025-01-03 16:30:01.967",
    "comment": "Paštomatas yra lauke ",
    "latitude": "54.23138",
    "longitude": 23.51641,
    "postalCode": "67112",
    "countryCode": "LT"
  },
  {
    "id": 3903,
    "name": "Norfa",
    "city": "Veisiejai",
    "address": "Dariaus ir Girėno g. 13",
    "updated": "2025-01-03 16:30:01.971",
    "comment": "Paštomatas stovi lauke prie įėjimo į prekybos centrą.",
    "latitude": "54.10148",
    "longitude": 23.69581,
    "postalCode": "67340",
    "countryCode": "LT"
  },
  {
    "id": 4001,
    "name": "Maxima X",
    "city": "Šilalė",
    "address": "Dariaus ir Girėno g. 12",
    "updated": "2025-01-03 16:30:01.974",
    "comment": "Paštomatas yra lauke",
    "latitude": "55.490798",
    "longitude": 22.179388,
    "postalCode": "75135",
    "countryCode": "LT"
  },
  {
    "id": 4002,
    "name": "IKI ",
    "city": "Šilalė",
    "address": "J. Basanavičiaus g. 21",
    "updated": "2025-01-03 16:30:01.976",
    "comment": "Paštomatas stovi lauke prie įėjimo į pašto skyrių.",
    "latitude": "55.490049",
    "longitude": 22.187869,
    "postalCode": "75124",
    "countryCode": "LT"
  },
  {
    "id": 4003,
    "name": "Meduolis",
    "city": "Kaltinėnai",
    "address": "Varnių g.5",
    "updated": "2025-01-03 16:30:01.98",
    "comment": "Paštomatas į prie įėjimo į parduotuvę.",
    "latitude": "55.56463079",
    "longitude": 22.455325922,
    "postalCode": "75451",
    "countryCode": "LT"
  },
  {
    "id": 4102,
    "name": "Pašto skyrius",
    "city": "Molėtai",
    "address": "Vilniaus g. 43",
    "updated": "2025-01-03 16:30:01.983",
    "comment": "Paštomatas yra lauke prie Lietuvos pašto pastato šoninės sienos",
    "latitude": "55.23209",
    "longitude": 25.419384,
    "postalCode": "33102",
    "countryCode": "LT"
  },
  {
    "id": 4201,
    "name": "Maxima X",
    "city": "Kaišiadorys",
    "address": "Gedimino g. 110",
    "updated": "2025-01-03 16:30:01.986",
    "comment": "Paštomatas yra lauke",
    "latitude": "54.857444",
    "longitude": 24.444778,
    "postalCode": "56151",
    "countryCode": "LT"
  },
  {
    "id": 4202,
    "name": "Pašto skyrius",
    "city": "Žiežmariai",
    "address": "Žąslių g. 5",
    "updated": "2025-01-03 16:30:01.993",
    "comment": "Paštomatas yra lauke prie Lietuvos pašto pastato pagrindinio įėjimo.",
    "latitude": "54.805034",
    "longitude": 24.444112,
    "postalCode": "56235",
    "countryCode": "LT"
  },
  {
    "id": 4203,
    "name": "Maxima",
    "city": "Rumšiškės",
    "address": "L. Lekavičiaus g. 32",
    "updated": "2025-01-03 16:30:01.997",
    "comment": "Paštomatas yra lauke",
    "latitude": "54.872499",
    "longitude": 24.214641,
    "postalCode": "56337",
    "countryCode": "LT"
  },
  {
    "id": 4204,
    "name": "Norfa",
    "city": "Kaišiadorys",
    "address": "Gedimino g. 140",
    "updated": "2025-01-03 16:30:02.001",
    "comment": "Paštomatas stovi lauke prie prekybos centro sienos.",
    "latitude": "54.85276",
    "longitude": 24.43312,
    "postalCode": "56171",
    "countryCode": "LT"
  },
  {
    "id": 4205,
    "name": "Aibė",
    "city": "Kaišiadorys",
    "address": "Vytauto Didžiojo g.35",
    "updated": "2025-01-03 16:30:02.005",
    "comment": "Paštomatas prie įėjimo į Aibę",
    "latitude": "54.8653",
    "longitude": 24.4607,
    "postalCode": "56119",
    "countryCode": "LT"
  },
  {
    "id": 4302,
    "name": "Baltasis Kampas PC",
    "city": "Babtai",
    "address": "Kauno g. 2C",
    "updated": "2025-01-03 16:30:02.009",
    "comment": "",
    "latitude": 55.087172,
    "longitude": 23.796079,
    "postalCode": 54331,
    "countryCode": "LT"
  },
  {
    "id": 4501,
    "name": "Norfa",
    "city": "Gargždai",
    "address": "Klaipėdos g. 41",
    "updated": "2025-01-03 16:30:02.013",
    "comment": "Paštomatas yra lauke",
    "latitude": "55.712477",
    "longitude": 21.380554,
    "postalCode": "96143",
    "countryCode": "LT"
  },
  {
    "id": 4502,
    "name": "Aibė",
    "city": "Gargždai",
    "address": "Vasarios 16-osios g.45",
    "updated": "2025-01-03 16:30:02.016",
    "comment": "Paštomatas yra prie parduotuvės Aibė",
    "latitude": "55.717696",
    "longitude": 21.394182,
    "postalCode": "96119",
    "countryCode": "LT"
  },
  {
    "id": 4503,
    "name": "Aibė",
    "city": "Gargždai",
    "address": "Pušų g. 40",
    "updated": "2025-01-03 16:30:02.019",
    "comment": "Paštomatas stovi lauke prie įėjimo į prekybos centrą.",
    "latitude": "55.707148",
    "longitude": 21.386226,
    "postalCode": "96145",
    "countryCode": "LT"
  },
  {
    "id": 4504,
    "name": "Aibė",
    "city": "Vėžaičiai",
    "address": "Gargždų g.29",
    "updated": "21.4754",
    "comment": "2025-01-03 16:30:02.023",
    "latitude": "96216",
    "longitude": 55.7181,
    "postalCode": " Vėžaičiai",
    "countryCode": "LT"
  },
  {
    "id": 4701,
    "name": "Norfa",
    "city": "Kuršėnai",
    "address": "Vilniaus g. 2",
    "updated": "2025-01-03 16:30:02.026",
    "comment": "Paštomatas yra lauke",
    "latitude": "56.001825",
    "longitude": 22.938466,
    "postalCode": "81156",
    "countryCode": "LT"
  },
  {
    "id": 4702,
    "name": "Norfa",
    "city": "Kuršėnai",
    "address": "Vytauto g. 78",
    "updated": "2025-01-03 16:30:02.029",
    "comment": "Paštomatas yra prie PC Norfa",
    "latitude": "56.0127",
    "longitude": 22.9444,
    "postalCode": "81146",
    "countryCode": "LT"
  },
  {
    "id": 4801,
    "name": "Norfa",
    "city": "Kupiškis",
    "address": "Pergalės g. 8",
    "updated": "2025-01-03 16:30:02.032",
    "comment": "Paštomatas yra lauke",
    "latitude": "55.844339",
    "longitude": 24.979961,
    "postalCode": "40108",
    "countryCode": "LT"
  },
  {
    "id": 4802,
    "name": "Tehasas",
    "city": "Kupiškis",
    "address": "Vytauto g. 41",
    "updated": "2025-01-03 16:30:02.035",
    "comment": "Paštomatas stovi lauke",
    "latitude": "55.839664",
    "longitude": 24.985843,
    "postalCode": "40115",
    "countryCode": "LT"
  },
  {
    "id": 4901,
    "name": "IKI Riešė",
    "city": "Riešė",
    "address": "Molėtų g. 13",
    "updated": "2025-01-03 16:30:02.039",
    "comment": "Paštomatas yra prekybos centro viduje",
    "latitude": "54.781455",
    "longitude": 25.273956,
    "postalCode": "14262",
    "countryCode": "LT"
  },
  {
    "id": 4902,
    "name": "Maxima X",
    "city": "Riešė",
    "address": "Beržų g. 92",
    "updated": "2025-01-03 16:30:02.042",
    "comment": "Paštomatas yra lauke prie įėjimo į  prekybos centrą.",
    "latitude": "54.807176",
    "longitude": 25.251503,
    "postalCode": "14266",
    "countryCode": "LT"
  },
  {
    "id": 5001,
    "name": "IKI Garliava ",
    "city": "Garliava",
    "address": "Vytauto g. 67",
    "updated": "2025-01-03 16:30:02.046",
    "comment": "Paštomatas yra lauke",
    "latitude": "54.822568",
    "longitude": 23.872817,
    "postalCode": "53258",
    "countryCode": "LT"
  },
  {
    "id": 5002,
    "name": "Aibė",
    "city": "Mastaičiai",
    "address": "Mokslo g. 11",
    "updated": "2025-01-03 16:30:02.05",
    "comment": "Paštomatas yra lauke prie prekybos centro pagrindinio įėjimo.",
    "latitude": "54.823191",
    "longitude": 23.841248,
    "postalCode": "53312",
    "countryCode": "LT"
  },
  {
    "id": 5003,
    "name": "IKI Lozoraičio",
    "city": "Garliava",
    "address": "S. Lozoraičio g. 2",
    "updated": "2025-01-03 16:30:02.053",
    "comment": "Paštomatas stovi lauke",
    "latitude": "54.832069",
    "longitude": 23.876259,
    "postalCode": "53237",
    "countryCode": "LT"
  },
  {
    "id": 5101,
    "name": "Maxima XX",
    "city": "Grigiškės",
    "address": "Kovo 11-osios g. 38B",
    "updated": "2025-01-03 16:30:02.057",
    "comment": "Paštomatas yra lauke",
    "latitude": "54.669716",
    "longitude": 25.098743,
    "postalCode": "27114",
    "countryCode": "LT"
  },
  {
    "id": 5102,
    "name": "IKI Lentvaris",
    "city": "Lentvaris",
    "address": "Geležinkelio g. 38-1",
    "updated": "2025-01-03 16:30:02.061",
    "comment": "Paštomatas randasi lauke prie prekybos centro šoninės sienos.",
    "latitude": "54.644082",
    "longitude": 25.046398,
    "postalCode": "25116",
    "countryCode": "LT"
  },
  {
    "id": 5103,
    "name": "Norfa",
    "city": "Lentvaris",
    "address": "Klevų al. 4",
    "updated": "2025-01-03 16:30:02.065",
    "comment": "Paštomatas yra lauke prie parduotuvės pastato sienos.",
    "latitude": "54.646669",
    "longitude": 25.051247,
    "postalCode": "25109",
    "countryCode": "LT"
  },
  {
    "id": 5104,
    "name": "Rimi Trakai",
    "city": "Trakai",
    "address": "Vytauto g. 90",
    "updated": "2025-01-03 16:30:02.074",
    "comment": "Paštomatas stovi lauke",
    "latitude": "54.63342",
    "longitude": 24.93506,
    "postalCode": "21106",
    "countryCode": "LT"
  },
  {
    "id": 5105,
    "name": "IKI",
    "city": "Pagiriai",
    "address": "Durpių g. 40",
    "updated": "2025-01-03 16:30:02.079",
    "comment": "Paštomatas stovi lauke",
    "latitude": "54.577624",
    "longitude": 25.200801,
    "postalCode": "14118",
    "countryCode": "LT"
  },
  {
    "id": 5106,
    "name": "Norfa",
    "city": "Grigiškės",
    "address": "Kovo 11-osios g. 71",
    "updated": "2025-01-03 16:30:02.082",
    "comment": "Paštomatas stovi lauke prie pastato sienos netoli įėjimo i prekybos centrą.",
    "latitude": "54.66847",
    "longitude": 25.10422,
    "postalCode": "27124",
    "countryCode": "LT"
  },
  {
    "id": 5107,
    "name": "Norfa",
    "city": "Trakai",
    "address": "Vilniaus g. 15C",
    "updated": "2025-01-03 16:30:02.086",
    "comment": "Paštomatas stovi lauke prie prekybos centro sienos.",
    "latitude": "54.627722",
    "longitude": 24.945896,
    "postalCode": "21118",
    "countryCode": "LT"
  },
  {
    "id": 5201,
    "name": "Nemėžis",
    "city": "Nemėžis",
    "address": "V.Sirokomlės g. 4",
    "updated": "2025-01-03 16:30:02.089",
    "comment": "Paštomatas yra lauke",
    "latitude": "54.637882",
    "longitude": 25.356448,
    "postalCode": "13260",
    "countryCode": "LT"
  },
  {
    "id": 5202,
    "name": "KOOPS",
    "city": "Jašiūnai",
    "address": "M.Balinsko g. 2",
    "updated": "2025-01-03 16:30:02.092",
    "comment": "Paštomatas randasi lauke prie prekybos centro priekinės sienos",
    "latitude": "54.43957",
    "longitude": 25.326522,
    "postalCode": "17249",
    "countryCode": "LT"
  },
  {
    "id": 5203,
    "name": "IKI",
    "city": "Rudamina",
    "address": "Gamyklos g.26",
    "updated": "2025-01-03 16:30:02.095",
    "comment": "Paštomatas stovi lauke prie prekybos centro šoninės sienos. Matomas iš Taikos g. pusės.",
    "latitude": "54.592837",
    "longitude": 25.341629,
    "postalCode": "13249",
    "countryCode": "LT"
  },
  {
    "id": 5204,
    "name": "Pašto skyrius",
    "city": "Šalčininkai",
    "address": "Vilniaus g. 61",
    "updated": "2025-01-03 16:30:02.098",
    "comment": "Paštomatas stovi lauke. Matomas iš Vilniaus g. pusės.",
    "latitude": "54.307465",
    "longitude": 25.384354,
    "postalCode": "17116",
    "countryCode": "LT"
  },
  {
    "id": 5205,
    "name": "Pašto skyrius",
    "city": "Eišiškės",
    "address": "Gegužės a. 18",
    "updated": "2025-01-03 16:30:02.1",
    "comment": "Paštomatas stovi lauke prie pašto skyriaus šoninės sienos.",
    "latitude": "54.16851",
    "longitude": 24.99466,
    "postalCode": "17174",
    "countryCode": "LT"
  },
  {
    "id": 5206,
    "name": "Maxima",
    "city": "Skaidiškės",
    "address": "Rudaminos g. 29",
    "updated": "2025-01-03 16:30:02.103",
    "comment": "Paštomatas stovi lauke prie prekybos centro šoninės sienos.",
    "latitude": "54.6066",
    "longitude": 25.38295,
    "postalCode": "13275",
    "countryCode": "LT"
  },
  {
    "id": 6001,
    "name": "Norfa",
    "city": "Pagėgiai",
    "address": "Vilniaus g. 18A",
    "updated": "2025-01-03 16:30:02.106",
    "comment": "Paštomatas yra lauke ",
    "latitude": "55.135278",
    "longitude": 21.90706,
    "postalCode": "99292",
    "countryCode": "LT"
  },
  {
    "id": 6101,
    "name": "Norfa",
    "city": "Nemenčinė",
    "address": "Vilijos g. 2",
    "updated": "2025-01-03 16:30:02.108",
    "comment": "Paštomatas yra lauke prie įėjimo į parduotuvę.",
    "latitude": "54.844547",
    "longitude": 25.459807,
    "postalCode": "15174",
    "countryCode": "LT"
  },
  {
    "id": 6102,
    "name": "Lidl",
    "city": "Nemenčinė",
    "address": "Vilniaus g. 42",
    "updated": "2025-01-03 16:30:02.111",
    "comment": "Paštomatas stovi lauke. Parkingo aištelės gale.",
    "latitude": "54.84131",
    "longitude": 25.46877,
    "postalCode": "15173",
    "countryCode": "LT"
  },
  {
    "id": 7001,
    "name": "Norfa",
    "city": "Rūdiškės",
    "address": "Paluknės g. 1",
    "updated": "2025-01-03 16:30:02.117",
    "comment": "Paštomatas yra lauke prie prekybos centro pastato pagrindinio įėjimo.",
    "latitude": "54.520836",
    "longitude": 24.834763,
    "postalCode": "21172",
    "countryCode": "LT"
  },
  {
    "id": 7501,
    "name": "Lvivo g. (Udrop)",
    "city": "Vilnius",
    "address": "Lvivo g. 37",
    "updated": "25.27695915",
    "comment": "2025-01-03 16:30:02.119",
    "latitude": "9307",
    "longitude": 54.69740371,
    "postalCode": "",
    "countryCode": "LT"
  },
  {
    "id": 7502,
    "name": "K29 (Udrop)",
    "city": "Vilnius",
    "address": "Konstitucijos pr. 29",
    "updated": "2025-01-03 16:30:02.122",
    "comment": "Paštomatas yra dešinėje įvažiavimo į požeminį parkavimą pusėje.",
    "latitude": "54.69922573",
    "longitude": 25.26516288,
    "postalCode": "08105",
    "countryCode": "LT"
  },
  {
    "id": 7503,
    "name": "Juozapavičiaus g. (Udrop)",
    "city": "Vilnius",
    "address": "Juozapavičiaus g. 13 (Udrop)",
    "updated": "2025-01-03 16:30:02.126",
    "comment": "Paštomatas matomas iš Juozapavičiaus g. pusės.",
    "latitude": "54.69177866",
    "longitude": 25.28714459,
    "postalCode": "09311",
    "countryCode": "LT"
  },
  {
    "id": 7504,
    "name": "Sostinės turgus (Udrop)",
    "city": "Vilnius",
    "address": "Kalvarijų g. 88",
    "updated": "2025-01-03 16:30:02.129",
    "comment": "Paštomatas matomas iš Žalgirio g. pusės.",
    "latitude": "54.70302583",
    "longitude": 25.2823493,
    "postalCode": "09303",
    "countryCode": "LT"
  },
  {
    "id": 7505,
    "name": "Parko g. (Udrop)",
    "city": "Vilnius",
    "address": "Parko g. 37A",
    "updated": "2025-01-03 16:30:02.132",
    "comment": "Paštomatas yra dešinėje įėjimo į pastatą pusėje.",
    "latitude": "54.6851741",
    "longitude": 25.42523653,
    "postalCode": "11228",
    "countryCode": "LT"
  },
  {
    "id": 7506,
    "name": "North Star (Udrop)",
    "city": "Vilnius",
    "address": "Ulonų g. 2",
    "updated": "2025-01-03 16:30:02.135",
    "comment": "Paštomatas stovi dešinėje įvaržiavimo į požeminį parkavimą pusėje.",
    "latitude": "54.70804773",
    "longitude": 25.29008068,
    "postalCode": "08245",
    "countryCode": "LT"
  },
  {
    "id": 7507,
    "name": "Rimi Savanoriai (Udrop)",
    "city": "Kaunas",
    "address": "Savanorių pr. 321",
    "updated": "2025-01-03 16:30:02.138",
    "comment": "Paštomatas stovi kairėje įėjimo į RIMI parduotuvę pusėje.",
    "latitude": "54.91967733",
    "longitude": 23.95119252,
    "postalCode": "50120",
    "countryCode": "LT"
  },
  {
    "id": 7508,
    "name": "Draugystės g. (Udrop)",
    "city": "Kaunas",
    "address": "Draugystės g. 6A",
    "updated": "2025-01-03 16:30:02.141",
    "comment": "Paštomatas stovi kairėje įėjimo į Sportland parduotuvę pusėje.",
    "latitude": "54.91061117",
    "longitude": 23.98180071,
    "postalCode": "51286",
    "countryCode": "LT"
  },
  {
    "id": 7509,
    "name": "Norfa (Udrop)",
    "city": "Kaunas",
    "address": "Lukšio g. 70",
    "updated": "2025-01-03 16:30:02.144",
    "comment": "Paštomatas stovi dešinėje pastato pusėje.",
    "latitude": "54.92428138",
    "longitude": 23.93983001,
    "postalCode": "49411",
    "countryCode": "LT"
  },
  {
    "id": 7510,
    "name": "Vichy (Udrop)",
    "city": "Vilnius",
    "address": "Ozo g. 14C",
    "updated": "2025-01-03 16:30:02.147",
    "comment": "Paštomatas stovi už pastato",
    "latitude": "54.71625981",
    "longitude": 25.27744304,
    "postalCode": "08200",
    "countryCode": "LT"
  },
  {
    "id": 7511,
    "name": "Senukai (Udrop)",
    "city": "Kaunas",
    "address": "Veiverių g. 148",
    "updated": "2025-01-03 16:30:02.15",
    "comment": "Paštomatas stovi dešinėje įėjimo į pastatą pusėje.",
    "latitude": "54.86867345",
    "longitude": 23.88761511,
    "postalCode": "46354",
    "countryCode": "LT"
  },
  {
    "id": 7512,
    "name": "Senukai (Udrop)",
    "city": "Mažeikiai",
    "address": "Tirkšlių g. 5E",
    "updated": "2025-01-03 16:30:02.153",
    "comment": "Paštomatas stovi kairėje įėjimo į pastatą pusėje",
    "latitude": "56.30536983",
    "longitude": 22.35214953,
    "postalCode": "89234",
    "countryCode": "LT"
  },
  {
    "id": 7513,
    "name": "Senukai (Udrop)",
    "city": "Vilnius",
    "address": "V. Pociūno g. 10",
    "updated": "2025-01-03 16:30:02.156",
    "comment": "Paštomatas stovi dešinėje įėjimo į pastatą pusėje.",
    "latitude": "54.70537809",
    "longitude": 25.20730428,
    "postalCode": "06298",
    "countryCode": "LT"
  },
  {
    "id": 7514,
    "name": "Senukai (Udrop)",
    "city": "Alytus",
    "address": "Statybininkų g. 71A",
    "updated": "2025-01-03 16:30:02.159",
    "comment": "Paštomatas stovi dešinėje įėjimo į pastatą pusėje.",
    "latitude": "54.39365115",
    "longitude": 24.0157413,
    "postalCode": "63403",
    "countryCode": "LT"
  },
  {
    "id": 7515,
    "name": "Senukai (Udrop)",
    "city": "Ukmergė",
    "address": "Kauno g. 120B",
    "updated": "2025-01-03 16:30:02.162",
    "comment": "Paštomatas stovi kairėje įėjimo į pastatą pusėje",
    "latitude": "55.24118195",
    "longitude": 24.74304575,
    "postalCode": "20115",
    "countryCode": "LT"
  },
  {
    "id": 7516,
    "name": "Duetto (Udrop)",
    "city": "Vilnius",
    "address": "Spaudos g. 8",
    "updated": "2025-01-03 16:30:02.166",
    "comment": "Paštomatas stovi įvažiavimo/išvažiavimo į požeminį parkavimą",
    "latitude": "54.70175405",
    "longitude": 25.21208414,
    "postalCode": "01131",
    "countryCode": "LT"
  },
  {
    "id": 7517,
    "name": "Smėlio arena (Udrop)",
    "city": "Vilnius",
    "address": "Justiniškių g.12",
    "updated": "2025-01-03 16:30:02.17",
    "comment": "Paštomatas stovi dešinėje įėjimo į pastatą pusėje.",
    "latitude": "54.70326162",
    "longitude": 25.21945284,
    "postalCode": "05131",
    "countryCode": "LT"
  },
  {
    "id": 7518,
    "name": "Norfa (Udrop)",
    "city": "Vilnius",
    "address": "Molėtų pl. 47B",
    "updated": "2025-01-03 16:30:02.174",
    "comment": "Paštomatas stovi kairėje įėjimo į NORFA parduotuvę pusėje.",
    "latitude": "54.77184503",
    "longitude": 25.27237056,
    "postalCode": "08421",
    "countryCode": "LT"
  },
  {
    "id": 7519,
    "name": "Šilas (Udrop)",
    "city": "Kaunas",
    "address": "Juozapavičiaus pr. 33",
    "updated": "2025-01-03 16:30:02.178",
    "comment": "Paštomatas stovi dešinėje įėjimo į parduotuvę pusėje",
    "latitude": "54.87033633",
    "longitude": 23.93892887,
    "postalCode": "45257",
    "countryCode": "LT"
  },
  {
    "id": 7520,
    "name": "Šilas (Udrop)",
    "city": "Karmėlava",
    "address": "Vilniaus g. 6",
    "updated": "2025-01-03 16:30:02.181",
    "comment": "Paštomatas stovi kairėje įėjimo į parduotuvę pusėje.",
    "latitude": "54.96593617",
    "longitude": 24.05665606,
    "postalCode": "54448",
    "countryCode": "LT"
  },
  {
    "id": 7521,
    "name": "Šilas (Udrop)",
    "city": "Vilnius",
    "address": "Zujūnų g. 5",
    "updated": "2025-01-03 16:30:02.184",
    "comment": "Paštomatas stovi kairėje įėjimo į parduotuvę pusėje.",
    "latitude": "54.71250011",
    "longitude": 25.15982323,
    "postalCode": "06200",
    "countryCode": "LT"
  },
  {
    "id": 7522,
    "name": "Šilas (Udrop)",
    "city": "Kaunas",
    "address": "Mildos g. 5",
    "updated": "23.90790452",
    "comment": "2025-01-03 16:30:02.188",
    "latitude": "54358",
    "longitude": 54.96170071,
    "postalCode": " Domeikavos k.",
    "countryCode": "LT"
  },
  {
    "id": 7523,
    "name": "Molainių (Udrop)",
    "city": "Panevėžys",
    "address": "Molainių g 15",
    "updated": "2025-01-03 16:30:02.191",
    "comment": "Paštomatas stovi kairėje pastato pusėje.",
    "latitude": "55.72183347",
    "longitude": 24.33012629,
    "postalCode": "37162",
    "countryCode": "LT"
  },
  {
    "id": 7524,
    "name": "Norfa (Udrop)",
    "city": "Panevėžys",
    "address": "Klaipėdos g. 103",
    "updated": "2025-01-03 16:30:02.194",
    "comment": "Paštomatas stovi kairėje įėjimo į Norfa parduotuvę pusėje.",
    "latitude": "55.72896378",
    "longitude": 24.3243758,
    "postalCode": "37311",
    "countryCode": "LT"
  },
  {
    "id": 7525,
    "name": "Kubas (Udrop)",
    "city": "Šiauliai",
    "address": "Vytauto g. 122",
    "updated": "2025-01-03 16:30:02.197",
    "comment": "Paštomatas stovi parkavimo aikštelėje",
    "latitude": "55.93233285",
    "longitude": 23.30478601,
    "postalCode": "76341",
    "countryCode": "LT"
  },
  {
    "id": 7526,
    "name": "Pramonės (Udrop)",
    "city": "Šiauliai",
    "address": "Pramonės g. 23",
    "updated": "2025-01-03 16:30:02.2",
    "comment": "Paštomatas matomas iš Pramonės g. pusės.",
    "latitude": "55.906821894",
    "longitude": 23.325497873,
    "postalCode": "78136",
    "countryCode": "LT"
  },
  {
    "id": 7527,
    "name": "Moki-veži (Udrop)",
    "city": "Kaunas",
    "address": "Raudondvario pl. 205",
    "updated": "2025-01-03 16:30:02.202",
    "comment": "Paštomatas stovi dešinėje įėjimo į Moki-veži parduotuvę pusėje.",
    "latitude": "54.9191245",
    "longitude": 23.82753061,
    "postalCode": "47153",
    "countryCode": "LT"
  },
  {
    "id": 7528,
    "name": "Moki-veži (Udrop)",
    "city": "Klaipėda",
    "address": "Šilutės pl. 83A",
    "updated": "2025-01-03 16:30:02.205",
    "comment": "Paštomatas stovi kairėje įėjimo į Moki-veži parduotuvę pusėje.",
    "latitude": "55.6795681",
    "longitude": 21.18917898,
    "postalCode": "94101",
    "countryCode": "LT"
  },
  {
    "id": 7529,
    "name": "Rasa (Udrop)",
    "city": "Marijampolė",
    "address": "Dariaus ir Girėno g. 15",
    "updated": "2025-01-03 16:30:02.208",
    "comment": "Paštomatas stovi dešinėje įėjimo į RASA parduotuvę pusėje",
    "latitude": "54.56039686",
    "longitude": 23.36105515,
    "postalCode": "68260",
    "countryCode": "LT"
  },
  {
    "id": 7530,
    "name": "Aibė (Udrop)",
    "city": "Panevėžys",
    "address": "Nemuno g. 70",
    "updated": "2025-01-03 16:30:02.211",
    "comment": "Paštomatas stovi kairėje įėjimo į AIBĖ parduotuvę pusėje.",
    "latitude": "55.73266125",
    "longitude": 24.34231769,
    "postalCode": "35190",
    "countryCode": "LT"
  },
  {
    "id": 7531,
    "name": "Aibė (Udrop)",
    "city": "Vilnius",
    "address": "Erfurto g. 1",
    "updated": "2025-01-03 16:30:02.214",
    "comment": "Paštomatas stovi kairėje įėjimo į AIBĖ parduotuvę pusėje",
    "latitude": "54.678324118",
    "longitude": 25.213012522,
    "postalCode": "04220",
    "countryCode": "LT"
  },
  {
    "id": 7532,
    "name": "Aibė (Udrop)",
    "city": "Klaipėda",
    "address": "Taikos pr. 100",
    "updated": "2025-01-03 16:30:02.218",
    "comment": "Paštomatas stovi kairėje įėjimo į AIBĖ parduotuvę pusėje.",
    "latitude": "55.66820383",
    "longitude": 21.17180263,
    "postalCode": "93155",
    "countryCode": "LT"
  },
  {
    "id": 7533,
    "name": "Etnokultūros centras",
    "city": "Žemaičių Naumiestis",
    "address": "Pergalės a. 15",
    "updated": "2025-01-03 16:30:02.223",
    "comment": "Paštomatas stovi dešinėje įėjimo į AIBĖ parduotuvę pusėje",
    "latitude": "55.35907",
    "longitude": 21.70119,
    "postalCode": "99206",
    "countryCode": "LT"
  },
  {
    "id": 7534,
    "name": "Skulas (Udrop)",
    "city": "Vilnius",
    "address": "J. Kazlausko g. 33",
    "updated": "2025-01-03 16:30:02.228",
    "comment": "Paštomatas stovi dešinėje įėjimo į SKULAS degalinę pusėje",
    "latitude": "54.72239189",
    "longitude": 25.27110037,
    "postalCode": "08314",
    "countryCode": "LT"
  },
  {
    "id": 7535,
    "name": "Jozita (Udrop)",
    "city": "Kaunas",
    "address": "Kuršių g. 13A",
    "updated": "2025-01-03 16:30:02.231",
    "comment": "Paštomatas stovi dešinėje įėjimo į Jozita degalinę pusėje",
    "latitude": "54.93616529",
    "longitude": 23.89569753,
    "postalCode": "48109",
    "countryCode": "LT"
  },
  {
    "id": 7536,
    "name": "Aibė (Udrop)",
    "city": "Klaipėda",
    "address": "Plieno g. 1",
    "updated": "2025-01-03 16:30:02.234",
    "comment": "Paštomatas stovi dešinėje įėjimo į AIBĖ parduotuvę pusėje",
    "latitude": "55.6729627",
    "longitude": 21.20099227,
    "postalCode": "95112",
    "countryCode": "LT"
  },
  {
    "id": 7537,
    "name": "Stateta (Udrop)",
    "city": "Vilnius",
    "address": "Ukmergės g. 246",
    "updated": "2025-01-03 16:30:02.238",
    "comment": "Paštomatas stovi priešais įvažiavimą į STATETA plovyklą.",
    "latitude": "54.72321331",
    "longitude": 25.24125769,
    "postalCode": "07160",
    "countryCode": "LT"
  },
  {
    "id": 7538,
    "name": "Santariškių (Udrop)",
    "city": "Vilnius",
    "address": "Santariškių g. 1",
    "updated": "2025-01-03 16:30:02.241",
    "comment": "Paštomatas stovi dešinėje pusėje",
    "latitude": "54.75179426",
    "longitude": 25.28210363,
    "postalCode": "08406",
    "countryCode": "LT"
  },
  {
    "id": 7539,
    "name": "Šilas (Udrop)",
    "city": "Kaunas",
    "address": "Vandžiogalos pl. 22",
    "updated": "2025-01-03 16:30:02.244",
    "comment": "Paštomatas stovi dešinėje įėjimo į ŠILAS parduotuvę pusėje.",
    "latitude": "54.94530881",
    "longitude": 23.88265646,
    "postalCode": "47457",
    "countryCode": "LT"
  },
  {
    "id": 7540,
    "name": "Ecoil (Udrop)",
    "city": "Vilnius",
    "address": "Ukmergės g. 130",
    "updated": "2025-01-03 16:30:02.248",
    "comment": "Paštomatas stovi kairėje išvažiavimo iš plovyklos pusėje.",
    "latitude": "54.70315114",
    "longitude": 25.25752688,
    "postalCode": "08100",
    "countryCode": "LT"
  },
  {
    "id": 7541,
    "name": "Go9 (Udrop)",
    "city": "Vilnius",
    "address": "Gedimino pr. 9",
    "updated": "2025-01-03 16:30:02.251",
    "comment": "Paštomatą rasite viduje",
    "latitude": "54.686979",
    "longitude": 25.281569,
    "postalCode": "01105",
    "countryCode": "LT"
  },
  {
    "id": 7542,
    "name": "Domus Pro (Udrop)",
    "city": "Vilnius",
    "address": "Ukmergės g. 308",
    "updated": "2025-01-03 16:30:02.253",
    "comment": "Paštomatas yra lauke",
    "latitude": "54.74025",
    "longitude": 25.225274,
    "postalCode": "12110",
    "countryCode": "LT"
  },
  {
    "id": 7543,
    "name": "Rimi (Udrop)",
    "city": "Alytus",
    "address": "Ūdrijos g. 1",
    "updated": "2025-01-03 16:30:02.256",
    "comment": "Paštomatas stovi lauke. Prie prekybos centro fasadinės sienos.",
    "latitude": "54.40741",
    "longitude": 24.01689,
    "postalCode": "62411",
    "countryCode": "LT"
  },
  {
    "id": 7544,
    "name": "Helios (Udrop)",
    "city": "Klaipėda",
    "address": "Taikos pr. 56",
    "updated": "2025-01-03 16:30:02.259",
    "comment": "Paštomatas stovi dešinėje įėjimo į pastatą pusėje.",
    "latitude": "55.690680542",
    "longitude": 21.152790184,
    "postalCode": "91183",
    "countryCode": "LT"
  },
  {
    "id": 7545,
    "name": "Senukai (Udrop)",
    "city": "Panevėžys",
    "address": "Darbo a. 7",
    "updated": "2025-01-03 16:30:02.262",
    "comment": "Paštomatas stovi kairėje įėjimo į pastatą pusėje.",
    "latitude": "55.726056865",
    "longitude": 24.342256934,
    "postalCode": "35220",
    "countryCode": "LT"
  },
  {
    "id": 7546,
    "name": "Norfa (Udrop)",
    "city": "Lentvaris",
    "address": "Klevų al. 4",
    "updated": "2025-01-03 16:30:02.265",
    "comment": "Paštomatas yra lauke prie parduotuvės pastato sienos.",
    "latitude": "54.646669",
    "longitude": 25.051247,
    "postalCode": "25109",
    "countryCode": "LT"
  },
  {
    "id": 7547,
    "name": "Norfa (Udrop)",
    "city": "Vilnius",
    "address": "Ateities g. 10",
    "updated": "2025-01-03 16:30:02.267",
    "comment": "Paštomatas stovi kairėje įėjimo į NORFA parduotuvę pusėje.",
    "latitude": "54.737221119",
    "longitude": 25.267552256,
    "postalCode": "06324",
    "countryCode": "LT"
  },
  {
    "id": 7548,
    "name": "Šilas (Udrop)",
    "city": "Kaunas",
    "address": "Lubinų g. 155",
    "updated": "2025-01-03 16:30:02.27",
    "comment": "Paštomatas yra lauke",
    "latitude": "54.94542",
    "longitude": 23.828236,
    "postalCode": "47222",
    "countryCode": "LT"
  },
  {
    "id": 7549,
    "name": "Kubas (Udrop)",
    "city": "Panevėžys",
    "address": "Kniaudiškių g. 42",
    "updated": "2025-01-03 16:30:02.272",
    "comment": "Paštomatas stovi dešinėje pastato pusėje.",
    "latitude": "55.725864695",
    "longitude": 24.325816582,
    "postalCode": "37119",
    "countryCode": "LT"
  },
  {
    "id": 7550,
    "name": "Kubas (Udrop)",
    "city": "Šiauliai",
    "address": "Aido g. 12",
    "updated": "2025-01-03 16:30:02.275",
    "comment": "Paštomatas stovi kairėje įėjimo į KUBAS parduotuvę pusėje",
    "latitude": "55.91068896",
    "longitude": 23.265662378,
    "postalCode": "78322",
    "countryCode": "LT"
  },
  {
    "id": 7551,
    "name": "Kubas (Udrop)",
    "city": "Šiauliai",
    "address": "Draugystės pr. 14",
    "updated": "2025-01-03 16:30:02.279",
    "comment": "Paštomatas stovi dešinėje įėjimo į KUBAS parduotuvę pusėje",
    "latitude": "55.926339973",
    "longitude": 23.318311167,
    "postalCode": "77150",
    "countryCode": "LT"
  },
  {
    "id": 7552,
    "name": "Aibė (Udrop)",
    "city": "Marijampolė",
    "address": "Mokolų g. 23",
    "updated": "2025-01-03 16:30:02.282",
    "comment": "Paštomatas stovi dešinėje įėjimo į Aibė parduotuvę pusėje",
    "latitude": "54.563480899",
    "longitude": 23.342437213,
    "postalCode": "68173",
    "countryCode": "LT"
  },
  {
    "id": 7553,
    "name": "Aibė (Udrop)",
    "city": "Klaipėda",
    "address": "Žardininkų g. 27A",
    "updated": "2025-01-03 16:30:02.284",
    "comment": "Paštomatas stovi dešinėje įėjimo į AIBĖ parduotuvę pusėje",
    "latitude": "55.671911054",
    "longitude": 21.172409511,
    "postalCode": "94231",
    "countryCode": "LT"
  },
  {
    "id": 7554,
    "name": "IKI (Udrop)",
    "city": "Garliava",
    "address": "S. Lozoraičio g. 2",
    "updated": "2025-01-03 16:30:02.286",
    "comment": "Paštomatas stovi lauke",
    "latitude": "54.832069",
    "longitude": 23.876259,
    "postalCode": "53237",
    "countryCode": "LT"
  },
  {
    "id": 7555,
    "name": "Butkų Juzės (Udrop)",
    "city": "Klaipėda",
    "address": "Butkų Juzės g. 11",
    "updated": "2025-01-03 16:30:02.289",
    "comment": "Paštomatas stovi prie pastato",
    "latitude": "55.71891736",
    "longitude": 21.140376401,
    "postalCode": "92228",
    "countryCode": "LT"
  },
  {
    "id": 7556,
    "name": "IKI (Udrop)",
    "city": "Vilnius",
    "address": "Visalaukio g. 1",
    "updated": "2025-01-03 16:30:02.292",
    "comment": "Paštomatas stovi IKI parkavimo aikštelėje",
    "latitude": "54.778781",
    "longitude": 25.341272,
    "postalCode": "08428",
    "countryCode": "LT"
  },
  {
    "id": 7557,
    "name": "Šilas (Udrop)",
    "city": "Kaunas",
    "address": "V. Krėvės pr. 106 C",
    "updated": "2025-01-03 16:30:02.294",
    "comment": "Paštomatas stovi dešinėje įėjimo į ŠILAS parduotuvę pusėje",
    "latitude": "54.925224603",
    "longitude": 23.990008945,
    "postalCode": "50381",
    "countryCode": "LT"
  },
  {
    "id": 7558,
    "name": "Rimi (Udrop)",
    "city": "Vilnius",
    "address": "Senasis Ukmergės kl. 46A",
    "updated": "2025-01-03 16:30:02.297",
    "comment": "Paštomatas stovi kairėje įėjimo į RIMI parduotuvę pusėje.",
    "latitude": "54.77736",
    "longitude": 25.19205,
    "postalCode": "14302",
    "countryCode": "LT"
  },
  {
    "id": 7559,
    "name": "Rimi (Udrop)",
    "city": "Kaunas",
    "address": "Baltijos g. 58",
    "updated": "2025-01-03 16:30:02.299",
    "comment": "Paštomatas stovi lauke",
    "latitude": "54.92054",
    "longitude": 23.87958,
    "postalCode": "48221",
    "countryCode": "LT"
  },
  {
    "id": 7560,
    "name": "Rimi (Udrop)",
    "city": "Kaunas",
    "address": "V. Krėvės pr. 43",
    "updated": "2025-01-03 16:30:02.302",
    "comment": "Paštomatas stovi lauke prie prekybos centro šoninės sienos. Matomas iš V.Krėvės pr. pusės.",
    "latitude": "54.917479",
    "longitude": 23.966604,
    "postalCode": "49440",
    "countryCode": "LT"
  }
]